<gpx xmlns:onx="https://wwww.onxmaps.com/" xmlns="http://www.topografix.com/GPX/1/1" xmlns:xsi="http://www.w3.org/2001/XMLSchema-instance" xsi:schemaLocation="http://www.topografix.com/GPX/1/1 http://www.topografix.com/GPX/1/1/gpx.xsd" version="1.1" creator="onXmaps hunt web"><metadata/><wpt lat="42.87" lon="-122.144"><name>US-0018 Crater Lake National Park</name><desc>CN82wu
https://pota.app/#/park/US-0018
Activations: 195/212
qsos: 6360</desc><extensions><onx:color>rgba(255, 51, 0, 1)</onx:color><onx:icon>Parking</onx:icon></extensions></wpt><wpt lat="46.447" lon="-116.824"><name>US-0054 Nez Perce National Historical Park</name><desc>DN16ok
https://pota.app/#/park/US-0054
Activations: 75/78
qsos: 2162</desc><extensions><onx:color>rgba(255, 51, 0, 1)</onx:color><onx:icon>Parking</onx:icon></extensions></wpt><wpt lat="41.9486" lon="-121.711"><name>US-0199 Lower Klamath National Wildlife Refuge</name><desc>CN91dw
https://pota.app/#/park/US-0199
Activations: 17/21
qsos: 420</desc><extensions><onx:color>rgba(255, 51, 0, 1)</onx:color><onx:icon>Parking</onx:icon></extensions></wpt><wpt lat="44.7818" lon="-123.237"><name>US-0200 Sarah Helmick State Recreation Area</name><desc>CN84js
https://pota.app/#/park/US-0200
Activations: 134/151
qsos: 4076</desc><extensions><onx:color>rgba(132, 212, 0, 1)</onx:color><onx:icon>Parking</onx:icon></extensions></wpt><wpt lat="45.0959" lon="-123.069"><name>US-0213 Maud Williamson State Recreation Area</name><desc>CN85lc
https://pota.app/#/park/US-0213
Activations: 244/262
qsos: 6992</desc><extensions><onx:color>rgba(132, 212, 0, 1)</onx:color><onx:icon>Parking</onx:icon></extensions></wpt><wpt lat="45.0387" lon="-123.809"><name>US-0219 H.B. VanDuzer Scenic Corridor State Forest</name><desc>CN85ca
https://pota.app/#/park/US-0219
Activations: 22/25
qsos: 442</desc><extensions><onx:color>rgba(132, 212, 0, 1)</onx:color><onx:icon>Parking</onx:icon></extensions></wpt><wpt lat="44.7867" lon="-123.09"><name>US-0494 Ankeny National Wildlife Refuge</name><desc>CN84ks
https://pota.app/#/park/US-0494
Activations: 121/129
qsos: 4104</desc><extensions><onx:color>rgba(255, 51, 0, 1)</onx:color><onx:icon>Parking</onx:icon></extensions></wpt><wpt lat="43.1574" lon="-124.38"><name>US-0495 Bandon Marsh National Wildlife Refuge</name><desc>CN73td
https://pota.app/#/park/US-0495
Activations: 58/61
qsos: 1521</desc><extensions><onx:color>rgba(255, 51, 0, 1)</onx:color><onx:icon>Parking</onx:icon></extensions></wpt><wpt lat="44.962" lon="-123.257"><name>US-0496 Baskett Slough National Wildlife Refuge</name><desc>CN84ix
https://pota.app/#/park/US-0496
Activations: 221/241
qsos: 7602</desc><extensions><onx:color>rgba(132, 212, 0, 1)</onx:color><onx:icon>Parking</onx:icon></extensions></wpt><wpt lat="45.4859" lon="-123.974"><name>US-0498 Cape Meares National Wildlife Refuge</name><desc>CN85al
https://pota.app/#/park/US-0498
Activations: 22/25
qsos: 386</desc><extensions><onx:color>rgba(255, 51, 0, 1)</onx:color><onx:icon>Parking</onx:icon></extensions></wpt><wpt lat="45.8552" lon="-119.157"><name>US-0499 Cold Springs National Wildlife Refuge</name><desc>DN05ku
https://pota.app/#/park/US-0499
Activations: 25/25
qsos: 712</desc><extensions><onx:color>rgba(255, 51, 0, 1)</onx:color><onx:icon>Parking</onx:icon></extensions></wpt><wpt lat="42.5489" lon="-119.655"><name>US-0500 Hart Mountain National Wildlife Refuge</name><desc>DN02en
https://pota.app/#/park/US-0500
Activations: 6/6
qsos: 185</desc><extensions><onx:color>rgba(255, 51, 0, 1)</onx:color><onx:icon>Parking</onx:icon></extensions></wpt><wpt lat="42.9215" lon="-121.726"><name>US-0501 Klamath Marsh National Wildlife Refuge</name><desc>CN92dw
https://pota.app/#/park/US-0501
Activations: 16/18
qsos: 408</desc><extensions><onx:color>rgba(255, 51, 0, 1)</onx:color><onx:icon>Parking</onx:icon></extensions></wpt><wpt lat="43.2657" lon="-118.844"><name>US-0502 Malheur National Wildlife Refuge</name><desc>DN03ng
https://pota.app/#/park/US-0502
Activations: 30/35
qsos: 909</desc><extensions><onx:color>rgba(255, 51, 0, 1)</onx:color><onx:icon>Parking</onx:icon></extensions></wpt><wpt lat="45.5968" lon="-118.798"><name>US-0503 McKay Creek National Wildlife Refuge</name><desc>DN05oo
https://pota.app/#/park/US-0503
Activations: 23/23
qsos: 431</desc><extensions><onx:color>rgba(255, 51, 0, 1)</onx:color><onx:icon>Parking</onx:icon></extensions></wpt><wpt lat="45.1621" lon="-123.952"><name>US-0504 Nestucca Bay National Wildlife Refuge</name><desc>CN85ad
https://pota.app/#/park/US-0504
Activations: 21/21
qsos: 573</desc><extensions><onx:color>rgba(255, 51, 0, 1)</onx:color><onx:icon>Parking</onx:icon></extensions></wpt><wpt lat="43.1132" lon="-124.434"><name>US-0505 Oregon Islands National Wildlife Refuge</name><desc>CN73sc
https://pota.app/#/park/US-0505
Activations: 77/84
qsos: 1917</desc><extensions><onx:color>rgba(255, 51, 0, 1)</onx:color><onx:icon>Parking</onx:icon></extensions></wpt><wpt lat="44.8966" lon="-124.012"><name>US-0506 Siletz Bay National Wildlife Refuge</name><desc>CN74xv
https://pota.app/#/park/US-0506
Activations: 18/19
qsos: 277</desc><extensions><onx:color>rgba(132, 212, 0, 1)</onx:color><onx:icon>Parking</onx:icon></extensions></wpt><wpt lat="45.3813" lon="-122.831"><name>US-0508 Tualatin River National Wildlife Refuge</name><desc>CN85oj
https://pota.app/#/park/US-0508
Activations: 167/188
qsos: 4097</desc><extensions><onx:color>rgba(255, 51, 0, 1)</onx:color><onx:icon>Parking</onx:icon></extensions></wpt><wpt lat="42.5099" lon="-122.089"><name>US-0509 Upper Klamath National Wildlife Refuge</name><desc>CN82wm
https://pota.app/#/park/US-0509
Activations: 4/4
qsos: 65</desc><extensions><onx:color>rgba(255, 51, 0, 1)</onx:color><onx:icon>Parking</onx:icon></extensions></wpt><wpt lat="44.4075" lon="-123.341"><name>US-0510 William L. Finley National Wildlife Refuge</name><desc>CN84hj
https://pota.app/#/park/US-0510
Activations: 60/70
qsos: 2416</desc><extensions><onx:color>rgba(255, 51, 0, 1)</onx:color><onx:icon>Parking</onx:icon></extensions></wpt><wpt lat="46.2322" lon="-123.399"><name>US-0582 Julia Butler Hansen National Wildlife Refuge</name><desc>CN86hf
https://pota.app/#/park/US-0582
Activations: 22/24
qsos: 615</desc><extensions><onx:color>rgba(255, 51, 0, 1)</onx:color><onx:icon>Parking</onx:icon></extensions></wpt><wpt lat="46.2092" lon="-123.764"><name>US-0583 Lewis and Clark National Wildlife Refuge</name><desc>CN86cf
https://pota.app/#/park/US-0583
Activations: 3/5
qsos: 64</desc><extensions><onx:color>rgba(255, 51, 0, 1)</onx:color><onx:icon>Parking</onx:icon></extensions></wpt><wpt lat="45.9262" lon="-119.624"><name>US-0596 Umatilla National Wildlife Refuge</name><desc>DN05ew
https://pota.app/#/park/US-0596
Activations: 31/31
qsos: 879</desc><extensions><onx:color>rgba(255, 51, 0, 1)</onx:color><onx:icon>Parking</onx:icon></extensions></wpt><wpt lat="45.6967" lon="-121.29"><name>US-0731 Columbia River Gorge National Forest</name><desc>CN95iq
https://pota.app/#/park/US-0731
Activations: 880/915
qsos: 30582</desc><extensions><onx:color>rgba(255, 51, 0, 1)</onx:color><onx:icon>Parking</onx:icon></extensions></wpt><wpt lat="45.6258" lon="-122.655"><name>US-0824 Fort Vancouver National Historic Site</name><desc>CN85qp
https://pota.app/#/park/US-0824
Activations: 398/461
qsos: 12552</desc><extensions><onx:color>rgba(255, 51, 0, 1)</onx:color><onx:icon>Parking</onx:icon></extensions></wpt><wpt lat="44.5526" lon="-119.645"><name>US-0945 John Day Fossil Beds National Monument</name><desc>DN04en
https://pota.app/#/park/US-0945
Activations: 22/23
qsos: 553</desc><extensions><onx:color>rgba(255, 51, 0, 1)</onx:color><onx:icon>Parking</onx:icon></extensions></wpt><wpt lat="42.0983" lon="-123.409"><name>US-0953 Oregon Caves National Monument</name><desc>CN82hc
https://pota.app/#/park/US-0953
Activations: 9/9
qsos: 215</desc><extensions><onx:color>rgba(255, 51, 0, 1)</onx:color><onx:icon>Parking</onx:icon></extensions></wpt><wpt lat="45.5959" lon="-122.051"><name>US-2809 Ainsworth State Park</name><desc>CN85xo
https://pota.app/#/park/US-2809
Activations: 13/19
qsos: 251</desc><extensions><onx:color>rgba(255, 51, 0, 1)</onx:color><onx:icon>Parking</onx:icon></extensions></wpt><wpt lat="44.154" lon="-123.424"><name>US-2810 Alderwood Wayside State Park</name><desc>CN84gd
https://pota.app/#/park/US-2810
Activations: 59/62
qsos: 2013</desc><extensions><onx:color>rgba(255, 51, 0, 1)</onx:color><onx:icon>Parking</onx:icon></extensions></wpt><wpt lat="42.1125" lon="-124.187"><name>US-2811 Alfred A Loeb State Park</name><desc>CN72vc
https://pota.app/#/park/US-2811
Activations: 12/12
qsos: 434</desc><extensions><onx:color>rgba(255, 51, 0, 1)</onx:color><onx:icon>Parking</onx:icon></extensions></wpt><wpt lat="44.5925" lon="-118.51"><name>US-2812 Bates State Park</name><desc>DN04ro
https://pota.app/#/park/US-2812
Activations: 7/7
qsos: 195</desc><extensions><onx:color>rgba(255, 51, 0, 1)</onx:color><onx:icon>Parking</onx:icon></extensions></wpt><wpt lat="44.729" lon="-124.056"><name>US-2813 Beverly Beach State Park</name><desc>CN74xr
https://pota.app/#/park/US-2813
Activations: 109/132
qsos: 2553</desc><extensions><onx:color>rgba(255, 51, 0, 1)</onx:color><onx:icon>Parking</onx:icon></extensions></wpt><wpt lat="45.1933" lon="-123.967"><name>US-2814 Bob Straub State Park</name><desc>CN85ae
https://pota.app/#/park/US-2814
Activations: 31/34
qsos: 736</desc><extensions><onx:color>rgba(255, 51, 0, 1)</onx:color><onx:icon>Parking</onx:icon></extensions></wpt><wpt lat="44.5179" lon="-124.071"><name>US-2815 Brian Booth State Park</name><desc>CN74xm
https://pota.app/#/park/US-2815
Activations: 16/16
qsos: 357</desc><extensions><onx:color>rgba(255, 51, 0, 1)</onx:color><onx:icon>Parking</onx:icon></extensions></wpt><wpt lat="43.1514" lon="-124.402"><name>US-2816 Bullards Beach State Park</name><desc>CN73td
https://pota.app/#/park/US-2816
Activations: 168/187
qsos: 6043</desc><extensions><onx:color>rgba(255, 51, 0, 1)</onx:color><onx:icon>Parking</onx:icon></extensions></wpt><wpt lat="43.3063" lon="-124.399"><name>US-2817 Cape Arago State Park</name><desc>CN73th
https://pota.app/#/park/US-2817
Activations: 75/79
qsos: 1718</desc><extensions><onx:color>rgba(255, 51, 0, 1)</onx:color><onx:icon>Parking</onx:icon></extensions></wpt><wpt lat="42.8305" lon="-124.548"><name>US-2818 Cape Blanco State Park</name><desc>CN72rt
https://pota.app/#/park/US-2818
Activations: 63/66
qsos: 2099</desc><extensions><onx:color>rgba(255, 51, 0, 1)</onx:color><onx:icon>Parking</onx:icon></extensions></wpt><wpt lat="45.3558" lon="-123.971"><name>US-2819 Cape Lookout State Park</name><desc>CN85ai
https://pota.app/#/park/US-2819
Activations: 52/60
qsos: 1327</desc><extensions><onx:color>rgba(255, 51, 0, 1)</onx:color><onx:icon>Parking</onx:icon></extensions></wpt><wpt lat="44.1606" lon="-124.115"><name>US-2820 Carl G. Washburne Memorial State Park</name><desc>CN74wd
https://pota.app/#/park/US-2820
Activations: 12/13
qsos: 208</desc><extensions><onx:color>rgba(255, 51, 0, 1)</onx:color><onx:icon>Parking</onx:icon></extensions></wpt><wpt lat="44.3973" lon="-122.481"><name>US-2821 Cascadia State Park</name><desc>CN84sj
https://pota.app/#/park/US-2821
Activations: 21/26
qsos: 468</desc><extensions><onx:color>rgba(255, 51, 0, 1)</onx:color><onx:icon>Parking</onx:icon></extensions></wpt><wpt lat="45.1526" lon="-117.742"><name>US-2822 Catherine Creek State Park</name><desc>DN15dd
https://pota.app/#/park/US-2822
Activations: 7/11
qsos: 122</desc><extensions><onx:color>rgba(255, 51, 0, 1)</onx:color><onx:icon>Parking</onx:icon></extensions></wpt><wpt lat="42.4068" lon="-120.289"><name>US-2823 Chandler Wayside State Park</name><desc>CN92uj
https://pota.app/#/park/US-2823
Activations: 5/7
qsos: 130</desc><extensions><onx:color>rgba(255, 51, 0, 1)</onx:color><onx:icon>Parking</onx:icon></extensions></wpt><wpt lat="42.6428" lon="-121.873"><name>US-2824 Collier Memorial State Park</name><desc>CN92bp
https://pota.app/#/park/US-2824
Activations: 32/33
qsos: 681</desc><extensions><onx:color>rgba(255, 51, 0, 1)</onx:color><onx:icon>Parking</onx:icon></extensions></wpt><wpt lat="45.479" lon="-120.469"><name>US-2825 Cottonwood Canyon State Park</name><desc>CN95sl
https://pota.app/#/park/US-2825
Activations: 16/22
qsos: 520</desc><extensions><onx:color>rgba(255, 51, 0, 1)</onx:color><onx:icon>Parking</onx:icon></extensions></wpt><wpt lat="45.9391" lon="-123.987"><name>US-2826 Ecola State Park</name><desc>CN85aw
https://pota.app/#/park/US-2826
Activations: 57/68
qsos: 1723</desc><extensions><onx:color>rgba(255, 51, 0, 1)</onx:color><onx:icon>Parking</onx:icon></extensions></wpt><wpt lat="43.9406" lon="-122.835"><name>US-2827 Elijah Bristow State Park</name><desc>CN83nw
https://pota.app/#/park/US-2827
Activations: 131/145
qsos: 5459</desc><extensions><onx:color>rgba(255, 51, 0, 1)</onx:color><onx:icon>Parking</onx:icon></extensions></wpt><wpt lat="44.616" lon="-123.63"><name>US-2828 Ellmaker State Wayside State Park</name><desc>CN84eo
https://pota.app/#/park/US-2828
Activations: 10/11
qsos: 205</desc><extensions><onx:color>rgba(255, 51, 0, 1)</onx:color><onx:icon>Parking</onx:icon></extensions></wpt><wpt lat="46.1879" lon="-123.969"><name>US-2829 Fort Stevens State Park</name><desc>CN86ae
https://pota.app/#/park/US-2829
Activations: 159/190
qsos: 4905</desc><extensions><onx:color>rgba(255, 51, 0, 1)</onx:color><onx:icon>Parking</onx:icon></extensions></wpt><wpt lat="45.5397" lon="-122.221"><name>US-2830 Guy W. Talbot State Park</name><desc>CN85vm
https://pota.app/#/park/US-2830
Activations: 23/26
qsos: 330</desc><extensions><onx:color>rgba(255, 51, 0, 1)</onx:color><onx:icon>Parking</onx:icon></extensions></wpt><wpt lat="42.0674" lon="-124.311"><name>US-2831 Harris Beach State Park</name><desc>CN72ub
https://pota.app/#/park/US-2831
Activations: 41/49
qsos: 1573</desc><extensions><onx:color>rgba(255, 51, 0, 1)</onx:color><onx:icon>Parking</onx:icon></extensions></wpt><wpt lat="45.9118" lon="-119.17"><name>US-2832 Hat Rock State Park</name><desc>DN05jv
https://pota.app/#/park/US-2832
Activations: 45/47
qsos: 1201</desc><extensions><onx:color>rgba(255, 51, 0, 1)</onx:color><onx:icon>Parking</onx:icon></extensions></wpt><wpt lat="45.3421" lon="-118.236"><name>US-2833 Hilgard Junction State Park</name><desc>DN05vi
https://pota.app/#/park/US-2833
Activations: 34/36
qsos: 1278</desc><extensions><onx:color>rgba(255, 51, 0, 1)</onx:color><onx:icon>Parking</onx:icon></extensions></wpt><wpt lat="43.0353" lon="-124.117"><name>US-2834 Hoffman Memorial State Park</name><desc>CN73wa
https://pota.app/#/park/US-2834
Activations: 8/8
qsos: 339</desc><extensions><onx:color>rgba(255, 51, 0, 1)</onx:color><onx:icon>Parking</onx:icon></extensions></wpt><wpt lat="42.6885" lon="-124.433"><name>US-2835 Humbug Mountain State Park</name><desc>CN72sq
https://pota.app/#/park/US-2835
Activations: 20/22
qsos: 335</desc><extensions><onx:color>rgba(255, 51, 0, 1)</onx:color><onx:icon>Parking</onx:icon></extensions></wpt><wpt lat="42.1504" lon="-123.653"><name>US-2836 Illinois River Forks State Park</name><desc>CN82ed
https://pota.app/#/park/US-2836
Activations: 14/15
qsos: 280</desc><extensions><onx:color>rgba(255, 51, 0, 1)</onx:color><onx:icon>Parking</onx:icon></extensions></wpt><wpt lat="43.9272" lon="-124.109"><name>US-2837 Jessie M. Honeyman Memorial State Park</name><desc>CN73ww
https://pota.app/#/park/US-2837
Activations: 71/82
qsos: 1979</desc><extensions><onx:color>rgba(255, 51, 0, 1)</onx:color><onx:icon>Parking</onx:icon></extensions></wpt><wpt lat="45.7373" lon="-123.192"><name>US-2838 L.L. Stub Stewart State Park</name><desc>CN85jr
https://pota.app/#/park/US-2838
Activations: 218/246
qsos: 7616</desc><extensions><onx:color>rgba(255, 51, 0, 1)</onx:color><onx:icon>Parking</onx:icon></extensions></wpt><wpt lat="43.7639" lon="-121.529"><name>US-2839 LaPine State Park</name><desc>CN93fs
https://pota.app/#/park/US-2839
Activations: 83/91
qsos: 3006</desc><extensions><onx:color>rgba(255, 51, 0, 1)</onx:color><onx:icon>Parking</onx:icon></extensions></wpt><wpt lat="43.6103" lon="-117.257"><name>US-2840 Lake Owyhee State Park</name><desc>DN13io
https://pota.app/#/park/US-2840
Activations: 21/22
qsos: 585</desc><extensions><onx:color>rgba(255, 51, 0, 1)</onx:color><onx:icon>Parking</onx:icon></extensions></wpt><wpt lat="45.6833" lon="-121.289"><name>US-2841 Mayer State Park</name><desc>CN95iq
https://pota.app/#/park/US-2841
Activations: 159/164
qsos: 5321</desc><extensions><onx:color>rgba(255, 51, 0, 1)</onx:color><onx:icon>Parking</onx:icon></extensions></wpt><wpt lat="45.6954" lon="-121.336"><name>US-2842 Memaloose State Park</name><desc>CN95hq
https://pota.app/#/park/US-2842
Activations: 115/120
qsos: 3204</desc><extensions><onx:color>rgba(255, 51, 0, 1)</onx:color><onx:icon>Parking</onx:icon></extensions></wpt><wpt lat="45.2986" lon="-122.371"><name>US-2843 Milo McIver State Park</name><desc>CN85th
https://pota.app/#/park/US-2843
Activations: 228/240
qsos: 11771</desc><extensions><onx:color>rgba(255, 51, 0, 1)</onx:color><onx:icon>Parking</onx:icon></extensions></wpt><wpt lat="45.2952" lon="-122.701"><name>US-2844 Molalla River State Park</name><desc>CN85ph
https://pota.app/#/park/US-2844
Activations: 162/179
qsos: 5721</desc><extensions><onx:color>rgba(255, 51, 0, 1)</onx:color><onx:icon>Parking</onx:icon></extensions></wpt><wpt lat="45.686" lon="-123.937"><name>US-2845 Nehalem Bay State Park</name><desc>CN85aq
https://pota.app/#/park/US-2845
Activations: 63/77
qsos: 2598</desc><extensions><onx:color>rgba(255, 51, 0, 1)</onx:color><onx:icon>Parking</onx:icon></extensions></wpt><wpt lat="44.9381" lon="-123.028"><name>US-2846 Oregon State Capitol State Park</name><desc>CN84lw
https://pota.app/#/park/US-2846
Activations: 32/33
qsos: 527</desc><extensions><onx:color>rgba(255, 51, 0, 1)</onx:color><onx:icon>Parking</onx:icon></extensions></wpt><wpt lat="45.7615" lon="-123.958"><name>US-2847 Oswald West State Park</name><desc>CN85as
https://pota.app/#/park/US-2847
Activations: 23/26
qsos: 540</desc><extensions><onx:color>rgba(255, 51, 0, 1)</onx:color><onx:icon>Parking</onx:icon></extensions></wpt><wpt lat="42.7393" lon="-124.511"><name>US-2848 Port Orford Heads State Park</name><desc>CN72rr
https://pota.app/#/park/US-2848
Activations: 28/30
qsos: 423</desc><extensions><onx:color>rgba(255, 51, 0, 1)</onx:color><onx:icon>Parking</onx:icon></extensions></wpt><wpt lat="44.1278" lon="-120.723"><name>US-2849 Prineville Reservoir State Park</name><desc>CN94pd
https://pota.app/#/park/US-2849
Activations: 25/27
qsos: 744</desc><extensions><onx:color>rgba(255, 51, 0, 1)</onx:color><onx:icon>Parking</onx:icon></extensions></wpt><wpt lat="45.547" lon="-122.236"><name>US-2850 Rooster Rock State Park</name><desc>CN85vn
https://pota.app/#/park/US-2850
Activations: 124/131
qsos: 3727</desc><extensions><onx:color>rgba(255, 51, 0, 1)</onx:color><onx:icon>Parking</onx:icon></extensions></wpt><wpt lat="43.3232" lon="-124.385"><name>US-2851 Shore Acres State Park</name><desc>CN73th
https://pota.app/#/park/US-2851
Activations: 23/24
qsos: 416</desc><extensions><onx:color>rgba(255, 51, 0, 1)</onx:color><onx:icon>Parking</onx:icon></extensions></wpt><wpt lat="44.8761" lon="-122.653"><name>US-2852 Silver Falls State Park</name><desc>CN84qv
https://pota.app/#/park/US-2852
Activations: 100/115
qsos: 3004</desc><extensions><onx:color>rgba(132, 212, 0, 1)</onx:color><onx:icon>Parking</onx:icon></extensions></wpt><wpt lat="44.364" lon="-121.14"><name>US-2853 Smith Rock State Park</name><desc>CN94ki
https://pota.app/#/park/US-2853
Activations: 71/77
qsos: 1940</desc><extensions><onx:color>rgba(255, 51, 0, 1)</onx:color><onx:icon>Parking</onx:icon></extensions></wpt><wpt lat="44.6052" lon="-124.06"><name>US-2854 South Beach State Park</name><desc>CN74xo
https://pota.app/#/park/US-2854
Activations: 211/227
qsos: 5722</desc><extensions><onx:color>rgba(255, 51, 0, 1)</onx:color><onx:icon>Parking</onx:icon></extensions></wpt><wpt lat="45.6885" lon="-121.69"><name>US-2855 Starvation Creek State Park</name><desc>CN95dq
https://pota.app/#/park/US-2855
Activations: 29/33
qsos: 1895</desc><extensions><onx:color>rgba(255, 51, 0, 1)</onx:color><onx:icon>Parking</onx:icon></extensions></wpt><wpt lat="43.3306" lon="-124.373"><name>US-2856 Sunset Bay State Park</name><desc>CN73th
https://pota.app/#/park/US-2856
Activations: 20/25
qsos: 396</desc><extensions><onx:color>rgba(255, 51, 0, 1)</onx:color><onx:icon>Parking</onx:icon></extensions></wpt><wpt lat="44.5346" lon="-121.289"><name>US-2857 The Cove Palisades State Park</name><desc>CN94im
https://pota.app/#/park/US-2857
Activations: 55/59
qsos: 1819</desc><extensions><onx:color>rgba(255, 51, 0, 1)</onx:color><onx:icon>Parking</onx:icon></extensions></wpt><wpt lat="42.1155" lon="-122.442"><name>US-2858 Tub Springs State Park</name><desc>CN82sc
https://pota.app/#/park/US-2858
Activations: 14/18
qsos: 395</desc><extensions><onx:color>rgba(255, 51, 0, 1)</onx:color><onx:icon>Parking</onx:icon></extensions></wpt><wpt lat="44.1273" lon="-121.333"><name>US-2859 Tumalo State Park</name><desc>CN94id
https://pota.app/#/park/US-2859
Activations: 68/70
qsos: 1536</desc><extensions><onx:color>rgba(255, 51, 0, 1)</onx:color><onx:icon>Parking</onx:icon></extensions></wpt><wpt lat="43.6628" lon="-124.199"><name>US-2860 Umpqua Lighthouse State Park</name><desc>CN73vp
https://pota.app/#/park/US-2860
Activations: 41/45
qsos: 773</desc><extensions><onx:color>rgba(255, 51, 0, 1)</onx:color><onx:icon>Parking</onx:icon></extensions></wpt><wpt lat="42.409" lon="-123.133"><name>US-2861 Valley of the Rogue State Park</name><desc>CN82kj
https://pota.app/#/park/US-2861
Activations: 86/97
qsos: 3473</desc><extensions><onx:color>rgba(255, 51, 0, 1)</onx:color><onx:icon>Parking</onx:icon></extensions></wpt><wpt lat="45.6979" lon="-121.668"><name>US-2862 Viento State Park</name><desc>CN95dq
https://pota.app/#/park/US-2862
Activations: 49/56
qsos: 1249</desc><extensions><onx:color>rgba(255, 51, 0, 1)</onx:color><onx:icon>Parking</onx:icon></extensions></wpt><wpt lat="45.2821" lon="-117.213"><name>US-2863 Wallowa Lake State Park</name><desc>DN15jg
https://pota.app/#/park/US-2863
Activations: 23/26
qsos: 361</desc><extensions><onx:color>rgba(255, 51, 0, 1)</onx:color><onx:icon>Parking</onx:icon></extensions></wpt><wpt lat="45.6117" lon="-117.63"><name>US-2864 Wallowa Lake Hwy Scenic Corridor State Park</name><desc>DN15eo
https://pota.app/#/park/US-2864
Activations: 8/10
qsos: 136</desc><extensions><onx:color>rgba(255, 51, 0, 1)</onx:color><onx:icon>Parking</onx:icon></extensions></wpt><wpt lat="45.2439" lon="-121.097"><name>US-2865 White River Falls State Park</name><desc>CN95kf
https://pota.app/#/park/US-2865
Activations: 21/21
qsos: 1083</desc><extensions><onx:color>rgba(255, 51, 0, 1)</onx:color><onx:icon>Parking</onx:icon></extensions></wpt><wpt lat="45.0757" lon="-123.04"><name>US-2866 Willamette Mission State Park</name><desc>CN85lb
https://pota.app/#/park/US-2866
Activations: 129/147
qsos: 3589</desc><extensions><onx:color>rgba(255, 51, 0, 1)</onx:color><onx:icon>Parking</onx:icon></extensions></wpt><wpt lat="43.6018" lon="-124.178"><name>US-2867 William M. Tugman State Park</name><desc>CN73vo
https://pota.app/#/park/US-2867
Activations: 100/109
qsos: 3664</desc><extensions><onx:color>rgba(255, 51, 0, 1)</onx:color><onx:icon>Parking</onx:icon></extensions></wpt><wpt lat="47.5866" lon="-119.686"><name>US-3424 Ice Age Floods National Geologic Trail</name><desc>DN07do
https://pota.app/#/park/US-3424
Activations: 4373/4621
qsos: 144473</desc><extensions><onx:color>rgba(132, 212, 0, 1)</onx:color><onx:icon>Parking</onx:icon></extensions></wpt><wpt lat="43.9974" lon="-121.406"><name>US-4378 Deschutes National Forest</name><desc>CN93hx
https://pota.app/#/park/US-4378
Activations: 370/516
qsos: 11904</desc><extensions><onx:color>rgba(255, 51, 0, 1)</onx:color><onx:icon>Parking</onx:icon></extensions></wpt><wpt lat="42.6587" lon="-121.855"><name>US-4379 Fremont-Winema National Forest</name><desc>CN92bp
https://pota.app/#/park/US-4379
Activations: 143/164
qsos: 4700</desc><extensions><onx:color>rgba(255, 51, 0, 1)</onx:color><onx:icon>Parking</onx:icon></extensions></wpt><wpt lat="44.3193" lon="-118.675"><name>US-4380 Malheur National Forest</name><desc>DN04ph
https://pota.app/#/park/US-4380
Activations: 48/51
qsos: 1307</desc><extensions><onx:color>rgba(255, 51, 0, 1)</onx:color><onx:icon>Parking</onx:icon></extensions></wpt><wpt lat="45.3102" lon="-121.642"><name>US-4381 Mount Hood National Forest</name><desc>CN95eh
https://pota.app/#/park/US-4381
Activations: 289/332
qsos: 9122</desc><extensions><onx:color>rgba(255, 51, 0, 1)</onx:color><onx:icon>Parking</onx:icon></extensions></wpt><wpt lat="44.3762" lon="-120.118"><name>US-4382 Ochoco National Forest</name><desc>CN94wj
https://pota.app/#/park/US-4382
Activations: 71/83
qsos: 3491</desc><extensions><onx:color>rgba(255, 51, 0, 1)</onx:color><onx:icon>Parking</onx:icon></extensions></wpt><wpt lat="41.9816" lon="-123.961"><name>US-4383 Rogue River-Siskiyou National Forest</name><desc>CN81ax
https://pota.app/#/park/US-4383
Activations: 147/162
qsos: 5378</desc><extensions><onx:color>rgba(255, 51, 0, 1)</onx:color><onx:icon>Parking</onx:icon></extensions></wpt><wpt lat="44.359" lon="-123.824"><name>US-4384 Siuslaw National Forest</name><desc>CN84ci
https://pota.app/#/park/US-4384
Activations: 253/280
qsos: 13271</desc><extensions><onx:color>rgba(255, 51, 0, 1)</onx:color><onx:icon>Parking</onx:icon></extensions></wpt><wpt lat="45.1946" lon="-118.667"><name>US-4385 Umatilla National Forest</name><desc>DN05pe
https://pota.app/#/park/US-4385
Activations: 104/113
qsos: 5771</desc><extensions><onx:color>rgba(255, 51, 0, 1)</onx:color><onx:icon>Parking</onx:icon></extensions></wpt><wpt lat="43.2272" lon="-122.69"><name>US-4386 Umpqua National Forest</name><desc>CN83pf
https://pota.app/#/park/US-4386
Activations: 357/403
qsos: 19437</desc><extensions><onx:color>rgba(255, 51, 0, 1)</onx:color><onx:icon>Parking</onx:icon></extensions></wpt><wpt lat="45.3332" lon="-117.001"><name>US-4387 Wallowa-Whitman National Forest</name><desc>DN15lh
https://pota.app/#/park/US-4387
Activations: 83/90
qsos: 3039</desc><extensions><onx:color>rgba(255, 51, 0, 1)</onx:color><onx:icon>Parking</onx:icon></extensions></wpt><wpt lat="44.1576" lon="-122.062"><name>US-4388 Willamette National Forest</name><desc>CN84xd
https://pota.app/#/park/US-4388
Activations: 124/143
qsos: 2715</desc><extensions><onx:color>rgba(255, 51, 0, 1)</onx:color><onx:icon>Parking</onx:icon></extensions></wpt><wpt lat="42.1657" lon="-122.464"><name>US-4389 Cascade-Siskiyou National Monument</name><desc>CN82sd
https://pota.app/#/park/US-4389
Activations: 77/79
qsos: 2672</desc><extensions><onx:color>rgba(255, 51, 0, 1)</onx:color><onx:icon>Parking</onx:icon></extensions></wpt><wpt lat="43.9096" lon="-121.357"><name>US-4390 Newberry Crater Volcanic National Monument</name><desc>CN93hv
https://pota.app/#/park/US-4390
Activations: 129/153
qsos: 3841</desc><extensions><onx:color>rgba(255, 51, 0, 1)</onx:color><onx:icon>Parking</onx:icon></extensions></wpt><wpt lat="41.6015" lon="-122.847"><name>US-4457 Klamath National Forest</name><desc>CN81no
https://pota.app/#/park/US-4457
Activations: 50/55
qsos: 1882</desc><extensions><onx:color>rgba(255, 51, 0, 1)</onx:color><onx:icon>Parking</onx:icon></extensions></wpt><wpt lat="47.4273" lon="-121.421"><name>US-4562 Pacific Crest Trail National Scenic Trail</name><desc>CN97gk
https://pota.app/#/park/US-4562
Activations: 334/378
qsos: 10038</desc><extensions><onx:color>rgba(255, 51, 0, 1)</onx:color><onx:icon>Parking</onx:icon></extensions></wpt><wpt lat="38.9943" lon="-94.4833"><name>US-4566 California National Historic Trail</name><desc>EM28sx
https://pota.app/#/park/US-4566
Activations: 2757/2833
qsos: 113904</desc><extensions><onx:color>rgba(255, 51, 0, 1)</onx:color><onx:icon>Parking</onx:icon></extensions></wpt><wpt lat="41.2646" lon="-95.9246"><name>US-4572 Lewis and Clark National Historic Trail</name><desc>EN21ag
https://pota.app/#/park/US-4572
Activations: 4789/4919
qsos: 244974</desc><extensions><onx:color>rgba(255, 51, 0, 1)</onx:color><onx:icon>Parking</onx:icon></extensions></wpt><wpt lat="46.7468" lon="-114.172"><name>US-4574 Nez Perce National Historic Trail</name><desc>DN26vr
https://pota.app/#/park/US-4574
Activations: 259/265
qsos: 10032</desc><extensions><onx:color>rgba(255, 51, 0, 1)</onx:color><onx:icon>Parking</onx:icon></extensions></wpt><wpt lat="39.3826" lon="-96.4057"><name>US-4576 Oregon National Historic Trail</name><desc>EM19tj
https://pota.app/#/park/US-4576
Activations: 3396/3527
qsos: 158157</desc><extensions><onx:color>rgba(255, 51, 0, 1)</onx:color><onx:icon>Parking</onx:icon></extensions></wpt><wpt lat="46.1762" lon="-123.504"><name>US-5456 Clatsop State Forest</name><desc>CN86fe
https://pota.app/#/park/US-5456
Activations: 55/58
qsos: 2384</desc><extensions><onx:color>rgba(255, 51, 0, 1)</onx:color><onx:icon>Parking</onx:icon></extensions></wpt><wpt lat="43.446" lon="-124.022"><name>US-5457 Elliott State Forest</name><desc>CN73xk
https://pota.app/#/park/US-5457
Activations: 58/60
qsos: 1817</desc><extensions><onx:color>rgba(255, 51, 0, 1)</onx:color><onx:icon>Parking</onx:icon></extensions></wpt><wpt lat="43.472" lon="-121.681"><name>US-5458 Gilchrist State Forest</name><desc>CN93dl
https://pota.app/#/park/US-5458
Activations: 19/23
qsos: 443</desc><extensions><onx:color>rgba(255, 51, 0, 1)</onx:color><onx:icon>Parking</onx:icon></extensions></wpt><wpt lat="44.7203" lon="-122.446"><name>US-5459 Santiam State Forest</name><desc>CN84sr
https://pota.app/#/park/US-5459
Activations: 32/32
qsos: 572</desc><extensions><onx:color>rgba(255, 51, 0, 1)</onx:color><onx:icon>Parking</onx:icon></extensions></wpt><wpt lat="42.738" lon="-121.937"><name>US-5460 Sun Pass State Forest</name><desc>CN92ar
https://pota.app/#/park/US-5460
Activations: 5/7
qsos: 92</desc><extensions><onx:color>rgba(255, 51, 0, 1)</onx:color><onx:icon>Parking</onx:icon></extensions></wpt><wpt lat="45.5904" lon="-123.558"><name>US-5461 Tillamook State Forest</name><desc>CN85fo
https://pota.app/#/park/US-5461
Activations: 125/154
qsos: 4289</desc><extensions><onx:color>rgba(255, 51, 0, 1)</onx:color><onx:icon>Parking</onx:icon></extensions></wpt><wpt lat="46.1335" lon="-123.885"><name>US-5640 Lewis and Clark National Historical Park</name><desc>CN86bd
https://pota.app/#/park/US-5640
Activations: 99/110
qsos: 4627</desc><extensions><onx:color>rgba(255, 51, 0, 1)</onx:color><onx:icon>Parking</onx:icon></extensions></wpt><wpt lat="43.6408" lon="-110.581"><name>US-6227 Snake River National Wild &amp; Scenic River</name><desc>DN43rp
https://pota.app/#/park/US-6227
Activations: 105/110
qsos: 7500</desc><extensions><onx:color>rgba(255, 51, 0, 1)</onx:color><onx:icon>Parking</onx:icon></extensions></wpt><wpt lat="45.2513" lon="-122.886"><name>US-6434 Champoeg State Park</name><desc>CN85ng
https://pota.app/#/park/US-6434
Activations: 266/290
qsos: 8066</desc><extensions><onx:color>rgba(255, 51, 0, 1)</onx:color><onx:icon>Parking</onx:icon></extensions></wpt><wpt lat="45.5412" lon="-118.464"><name>US-6435 Emigrant Springs State Park</name><desc>DN05sm
https://pota.app/#/park/US-6435
Activations: 75/81
qsos: 3640</desc><extensions><onx:color>rgba(255, 51, 0, 1)</onx:color><onx:icon>Parking</onx:icon></extensions></wpt><wpt lat="44.7703" lon="-122.565"><name>US-6436 North Santiam State Park</name><desc>CN84rs
https://pota.app/#/park/US-6436
Activations: 38/44
qsos: 898</desc><extensions><onx:color>rgba(255, 51, 0, 1)</onx:color><onx:icon>Parking</onx:icon></extensions></wpt><wpt lat="45.521" lon="-116.731"><name>US-7361 Hells Canyon National Recreation Area</name><desc>DN15pm
https://pota.app/#/park/US-7361
Activations: 25/27
qsos: 599</desc><extensions><onx:color>rgba(255, 51, 0, 1)</onx:color><onx:icon>Parking</onx:icon></extensions></wpt><wpt lat="44.4966" lon="-121.056"><name>US-7482 Crooked River National Grassland</name><desc>CN94ll
https://pota.app/#/park/US-7482
Activations: 114/117
qsos: 3479</desc><extensions><onx:color>rgba(255, 51, 0, 1)</onx:color><onx:icon>Parking</onx:icon></extensions></wpt><wpt lat="45.008" lon="-124.009"><name>US-8318 Roads End State Recreation Area</name><desc>CN75xa
https://pota.app/#/park/US-8318
Activations: 50/62
qsos: 1044</desc><extensions><onx:color>rgba(132, 212, 0, 1)</onx:color><onx:icon>Parking</onx:icon></extensions></wpt><wpt lat="45.6334" lon="-120.909"><name>US-9142 Deschutes River State Recreation Area</name><desc>CN95np
https://pota.app/#/park/US-9142
Activations: 89/89
qsos: 6405</desc><extensions><onx:color>rgba(255, 51, 0, 1)</onx:color><onx:icon>Parking</onx:icon></extensions></wpt><wpt lat="44.7291" lon="-122.176"><name>US-9143 Detroit Lake State Recreation Area</name><desc>CN84vr
https://pota.app/#/park/US-9143
Activations: 23/31
qsos: 504</desc><extensions><onx:color>rgba(255, 51, 0, 1)</onx:color><onx:icon>Parking</onx:icon></extensions></wpt><wpt lat="45.4415" lon="-122.675"><name>US-9144 Tryon Creek State Natural Area</name><desc>CN85pk
https://pota.app/#/park/US-9144
Activations: 84/98
qsos: 2232</desc><extensions><onx:color>rgba(255, 51, 0, 1)</onx:color><onx:icon>Parking</onx:icon></extensions></wpt><wpt lat="44.9705" lon="-124.013"><name>US-9145 Devils Lake State Recreation Area</name><desc>CN74xx
https://pota.app/#/park/US-9145
Activations: 24/28
qsos: 476</desc><extensions><onx:color>rgba(255, 51, 0, 1)</onx:color><onx:icon>Parking</onx:icon></extensions></wpt><wpt lat="43.9716" lon="-122.666"><name>US-9146 Fall Creek State Recreation Area</name><desc>CN83qx
https://pota.app/#/park/US-9146
Activations: 35/38
qsos: 1191</desc><extensions><onx:color>rgba(255, 51, 0, 1)</onx:color><onx:icon>Parking</onx:icon></extensions></wpt><wpt lat="44.3035" lon="-117.227"><name>US-9147 Farewell Bend State Recreation Area</name><desc>DN14jh
https://pota.app/#/park/US-9147
Activations: 163/165
qsos: 8447</desc><extensions><onx:color>rgba(255, 51, 0, 1)</onx:color><onx:icon>Parking</onx:icon></extensions></wpt><wpt lat="41.9938" lon="-120.322"><name>US-9148 Goose Lake State Recreation Area</name><desc>CN91ux
https://pota.app/#/park/US-9148
Activations: 21/21
qsos: 993</desc><extensions><onx:color>rgba(255, 51, 0, 1)</onx:color><onx:icon>Parking</onx:icon></extensions></wpt><wpt lat="44.0505" lon="-116.975"><name>US-9149 Ontario State Recreation Area</name><desc>DN14mb
https://pota.app/#/park/US-9149
Activations: 82/90
qsos: 3623</desc><extensions><onx:color>rgba(255, 51, 0, 1)</onx:color><onx:icon>Parking</onx:icon></extensions></wpt><wpt lat="45.9629" lon="-123.69"><name>US-9150 Saddle Mt State Natural Area</name><desc>CN85dx
https://pota.app/#/park/US-9150
Activations: 12/13
qsos: 179</desc><extensions><onx:color>rgba(255, 51, 0, 1)</onx:color><onx:icon>Parking</onx:icon></extensions></wpt><wpt lat="43.4536" lon="-117.12"><name>US-9151 Succor Creek State Natural Area</name><desc>DN13kk
https://pota.app/#/park/US-9151
Activations: 18/19
qsos: 569</desc><extensions><onx:color>rgba(255, 51, 0, 1)</onx:color><onx:icon>Parking</onx:icon></extensions></wpt><wpt lat="42.4404" lon="-122.889"><name>US-9152 TouVelle State Park State Recreation Area</name><desc>CN82nk
https://pota.app/#/park/US-9152
Activations: 173/188
qsos: 9392</desc><extensions><onx:color>rgba(255, 51, 0, 1)</onx:color><onx:icon>Parking</onx:icon></extensions></wpt><wpt lat="44.4163" lon="-119.088"><name>US-9153 Clyde Holliday State Recreation Area</name><desc>DN04kj
https://pota.app/#/park/US-9153
Activations: 24/27
qsos: 631</desc><extensions><onx:color>rgba(255, 51, 0, 1)</onx:color><onx:icon>Parking</onx:icon></extensions></wpt><wpt lat="44.5001" lon="-118.187"><name>US-9154 Unity Lake State Recreation Area</name><desc>DN04vm
https://pota.app/#/park/US-9154
Activations: 9/9
qsos: 273</desc><extensions><onx:color>rgba(255, 51, 0, 1)</onx:color><onx:icon>Parking</onx:icon></extensions></wpt><wpt lat="45.7037" lon="-121.487"><name>US-9155 Historic Columbia River Highway State Trail</name><desc>CN95gq
https://pota.app/#/park/US-9155
Activations: 128/135
qsos: 7450</desc><extensions><onx:color>rgba(255, 51, 0, 1)</onx:color><onx:icon>Parking</onx:icon></extensions></wpt><wpt lat="44.1582" lon="-120.834"><name>US-9156 Crooked River National Wild and Scenic River</name><desc>CN94nd
https://pota.app/#/park/US-9156
Activations: 18/21
qsos: 589</desc><extensions><onx:color>rgba(255, 51, 0, 1)</onx:color><onx:icon>Parking</onx:icon></extensions></wpt><wpt lat="42.8277" lon="-118.887"><name>US-9157 Donner und Blitzen National Wild and Scenic River</name><desc>DN02nt
https://pota.app/#/park/US-9157
Activations: 22/25
qsos: 1004</desc><extensions><onx:color>rgba(255, 51, 0, 1)</onx:color><onx:icon>Parking</onx:icon></extensions></wpt><wpt lat="44.796" lon="-120.002"><name>US-9158 John Day National Wild and Scenic River</name><desc>CN94xt
https://pota.app/#/park/US-9158
Activations: 11/11
qsos: 224</desc><extensions><onx:color>rgba(255, 51, 0, 1)</onx:color><onx:icon>Parking</onx:icon></extensions></wpt><wpt lat="45.3362" lon="-120.948"><name>US-9159 Lower Deschutes National Wild and Scenic River</name><desc>CN95mi
https://pota.app/#/park/US-9159
Activations: 54/56
qsos: 1787</desc><extensions><onx:color>rgba(255, 51, 0, 1)</onx:color><onx:icon>Parking</onx:icon></extensions></wpt><wpt lat="42.6558" lon="-118.727"><name>US-9160 Steens Mountain BLM Special Recreation Management Area</name><desc>DN02pp
https://pota.app/#/park/US-9160
Activations: 32/40
qsos: 1559</desc><extensions><onx:color>rgba(255, 51, 0, 1)</onx:color><onx:icon>Parking</onx:icon></extensions></wpt><wpt lat="44.6596" lon="-124.056"><name>US-9523 Agate Beach State Recreation Area</name><desc>CN74xp
https://pota.app/#/park/US-9523
Activations: 22/27
qsos: 412</desc><extensions><onx:color>rgba(255, 51, 0, 1)</onx:color><onx:icon>Parking</onx:icon></extensions></wpt><wpt lat="45.5602" lon="-122.173"><name>US-9524 Angel's Rest State Trail</name><desc>CN85vn
https://pota.app/#/park/US-9524
Activations: 15/18
qsos: 214</desc><extensions><onx:color>rgba(255, 51, 0, 1)</onx:color><onx:icon>Parking</onx:icon></extensions></wpt><wpt lat="45.8464" lon="-123.96"><name>US-9525 Arcadia Beach State Recreation Area</name><desc>CN85au
https://pota.app/#/park/US-9525
Activations: 24/28
qsos: 704</desc><extensions><onx:color>rgba(255, 51, 0, 1)</onx:color><onx:icon>Parking</onx:icon></extensions></wpt><wpt lat="42.6155" lon="-124.398"><name>US-9526 Arizona Beach State Recreation Area</name><desc>CN72to
https://pota.app/#/park/US-9526
Activations: 13/13
qsos: 245</desc><extensions><onx:color>rgba(255, 51, 0, 1)</onx:color><onx:icon>Parking</onx:icon></extensions></wpt><wpt lat="43.0725" lon="-124.435"><name>US-9527 Bandon State Natural Area</name><desc>CN73sb
https://pota.app/#/park/US-9527
Activations: 36/39
qsos: 857</desc><extensions><onx:color>rgba(255, 51, 0, 1)</onx:color><onx:icon>Parking</onx:icon></extensions></wpt><wpt lat="45.7585" lon="-123.202"><name>US-9528 Banks-Vernonia State Trail</name><desc>CN85js
https://pota.app/#/park/US-9528
Activations: 85/95
qsos: 2347</desc><extensions><onx:color>rgba(255, 51, 0, 1)</onx:color><onx:icon>Parking</onx:icon></extensions></wpt><wpt lat="44.3833" lon="-124.089"><name>US-9529 Beachside State Recreation Area</name><desc>CN74wj
https://pota.app/#/park/US-9529
Activations: 18/24
qsos: 287</desc><extensions><onx:color>rgba(255, 51, 0, 1)</onx:color><onx:icon>Parking</onx:icon></extensions></wpt><wpt lat="45.5767" lon="-122.128"><name>US-9530 Benson State Recreation Area</name><desc>CN85wn
https://pota.app/#/park/US-9530
Activations: 23/25
qsos: 392</desc><extensions><onx:color>rgba(255, 51, 0, 1)</onx:color><onx:icon>Parking</onx:icon></extensions></wpt><wpt lat="45.3504" lon="-122.379"><name>US-9531 Bonnie Lure State Recreation Area</name><desc>CN85ti
https://pota.app/#/park/US-9531
Activations: 61/65
qsos: 2069</desc><extensions><onx:color>rgba(255, 51, 0, 1)</onx:color><onx:icon>Parking</onx:icon></extensions></wpt><wpt lat="45.2186" lon="-123.976"><name>US-9532 Cape Kiwanda State Natural Area</name><desc>CN85af
https://pota.app/#/park/US-9532
Activations: 13/14
qsos: 229</desc><extensions><onx:color>rgba(255, 51, 0, 1)</onx:color><onx:icon>Parking</onx:icon></extensions></wpt><wpt lat="45.2734" lon="-123.95"><name>US-9533 Clay Myers State Natural Area</name><desc>CN85ag
https://pota.app/#/park/US-9533
Activations: 10/12
qsos: 155</desc><extensions><onx:color>rgba(255, 51, 0, 1)</onx:color><onx:icon>Parking</onx:icon></extensions></wpt><wpt lat="42.949" lon="-124.106"><name>US-9534 Coquille Myrtle Grove State Natural Site</name><desc>CN72ww
https://pota.app/#/park/US-9534
Activations: 9/9
qsos: 324</desc><extensions><onx:color>rgba(255, 51, 0, 1)</onx:color><onx:icon>Parking</onx:icon></extensions></wpt><wpt lat="42.0033" lon="-124.212"><name>US-9535 Crissey Field State Recreation Area</name><desc>CN72va
https://pota.app/#/park/US-9535
Activations: 15/17
qsos: 343</desc><extensions><onx:color>rgba(255, 51, 0, 1)</onx:color><onx:icon>Parking</onx:icon></extensions></wpt><wpt lat="44.9675" lon="-124.017"><name>US-9536 D River State Recreation Area</name><desc>CN74xx
https://pota.app/#/park/US-9536
Activations: 33/37
qsos: 681</desc><extensions><onx:color>rgba(255, 51, 0, 1)</onx:color><onx:icon>Parking</onx:icon></extensions></wpt><wpt lat="45.5171" lon="-122.356"><name>US-9537 Dabney State Recreation Area</name><desc>CN85tm
https://pota.app/#/park/US-9537
Activations: 48/52
qsos: 1060</desc><extensions><onx:color>rgba(255, 51, 0, 1)</onx:color><onx:icon>Parking</onx:icon></extensions></wpt><wpt lat="44.0475" lon="-124.097"><name>US-9538 Darlingtonia State Natural Site</name><desc>CN74wb
https://pota.app/#/park/US-9538
Activations: 13/17
qsos: 208</desc><extensions><onx:color>rgba(255, 51, 0, 1)</onx:color><onx:icon>Parking</onx:icon></extensions></wpt><wpt lat="46.0472" lon="-123.929"><name>US-9539 Del Rey Beach State Recreation Area</name><desc>CN86ab
https://pota.app/#/park/US-9539
Activations: 70/77
qsos: 2852</desc><extensions><onx:color>rgba(255, 51, 0, 1)</onx:color><onx:icon>Parking</onx:icon></extensions></wpt><wpt lat="44.7471" lon="-124.065"><name>US-9540 Devil's Punchbowl State Natural Area</name><desc>CN74xr
https://pota.app/#/park/US-9540
Activations: 29/34
qsos: 618</desc><extensions><onx:color>rgba(255, 51, 0, 1)</onx:color><onx:icon>Parking</onx:icon></extensions></wpt><wpt lat="43.9166" lon="-122.813"><name>US-9541 Dexter State Recreation Area</name><desc>CN83ov
https://pota.app/#/park/US-9541
Activations: 68/69
qsos: 1947</desc><extensions><onx:color>rgba(255, 51, 0, 1)</onx:color><onx:icon>Parking</onx:icon></extensions></wpt><wpt lat="44.4643" lon="-124.08"><name>US-9542 Driftwood Beach State Recreation Area</name><desc>CN74xl
https://pota.app/#/park/US-9542
Activations: 18/22
qsos: 406</desc><extensions><onx:color>rgba(255, 51, 0, 1)</onx:color><onx:icon>Parking</onx:icon></extensions></wpt><wpt lat="45.1376" lon="-123.291"><name>US-9543 Erratic Rock State Natural Area</name><desc>CN85id
https://pota.app/#/park/US-9543
Activations: 42/43
qsos: 1114</desc><extensions><onx:color>rgba(132, 212, 0, 1)</onx:color><onx:icon>Parking</onx:icon></extensions></wpt><wpt lat="44.8393" lon="-124.049"><name>US-9544 Fogarty Creek State Recreation Area</name><desc>CN74xu
https://pota.app/#/park/US-9544
Activations: 12/16
qsos: 233</desc><extensions><onx:color>rgba(255, 51, 0, 1)</onx:color><onx:icon>Parking</onx:icon></extensions></wpt><wpt lat="43.3728" lon="-121.066"><name>US-9545 Fort Rock State Natural Area</name><desc>CN93li
https://pota.app/#/park/US-9545
Activations: 37/37
qsos: 1542</desc><extensions><onx:color>rgba(255, 51, 0, 1)</onx:color><onx:icon>Parking</onx:icon></extensions></wpt><wpt lat="45.075" lon="-123.573"><name>US-9546 Fort Yamhill State Historic Site</name><desc>CN85fb
https://pota.app/#/park/US-9546
Activations: 46/50
qsos: 1090</desc><extensions><onx:color>rgba(132, 212, 0, 1)</onx:color><onx:icon>Parking</onx:icon></extensions></wpt><wpt lat="42.4906" lon="-124.416"><name>US-9547 Geisel Monument State Historic Site</name><desc>CN72tl
https://pota.app/#/park/US-9547
Activations: 8/8
qsos: 127</desc><extensions><onx:color>rgba(255, 51, 0, 1)</onx:color><onx:icon>Parking</onx:icon></extensions></wpt><wpt lat="44.8758" lon="-124.037"><name>US-9548 Gleneden Beach State Recreation Area</name><desc>CN74xv
https://pota.app/#/park/US-9548
Activations: 29/35
qsos: 532</desc><extensions><onx:color>rgba(132, 212, 0, 1)</onx:color><onx:icon>Parking</onx:icon></extensions></wpt><wpt lat="42.682" lon="-123.331"><name>US-9549 Golden Townsite State Historic Site</name><desc>CN82iq
https://pota.app/#/park/US-9549
Activations: 14/15
qsos: 295</desc><extensions><onx:color>rgba(255, 51, 0, 1)</onx:color><onx:icon>Parking</onx:icon></extensions></wpt><wpt lat="43.482" lon="-123.933"><name>US-9550 Golden and Silver Falls State Natural Area</name><desc>CN83al
https://pota.app/#/park/US-9550
Activations: 7/7
qsos: 163</desc><extensions><onx:color>rgba(255, 51, 0, 1)</onx:color><onx:icon>Parking</onx:icon></extensions></wpt><wpt lat="45.57" lon="-122.508"><name>US-9551 Government, Lemon, and McGuire Islands State Recreation Area</name><desc>CN85rn
https://pota.app/#/park/US-9551
Activations: 7/7
qsos: 266</desc><extensions><onx:color>rgba(255, 51, 0, 1)</onx:color><onx:icon>Parking</onx:icon></extensions></wpt><wpt lat="44.4141" lon="-124.083"><name>US-9552 Governor Patterson Memorial State Recreation Area</name><desc>CN74xj
https://pota.app/#/park/US-9552
Activations: 25/28
qsos: 490</desc><extensions><onx:color>rgba(255, 51, 0, 1)</onx:color><onx:icon>Parking</onx:icon></extensions></wpt><wpt lat="45.6325" lon="-120.915"><name>US-9553 Heritage Landing - Deschutes State Recreation Area</name><desc>CN95np
https://pota.app/#/park/US-9553
Activations: 75/75
qsos: 6790</desc><extensions><onx:color>rgba(255, 51, 0, 1)</onx:color><onx:icon>Parking</onx:icon></extensions></wpt><wpt lat="45.8288" lon="-123.961"><name>US-9554 Hug Point State Recreation Area</name><desc>CN85at
https://pota.app/#/park/US-9554
Activations: 20/23
qsos: 523</desc><extensions><onx:color>rgba(255, 51, 0, 1)</onx:color><onx:icon>Parking</onx:icon></extensions></wpt><wpt lat="45.3428" lon="-117.224"><name>US-9555 Iwetemlaykin State Historic Site</name><desc>DN15ji
https://pota.app/#/park/US-9555
Activations: 10/11
qsos: 253</desc><extensions><onx:color>rgba(255, 51, 0, 1)</onx:color><onx:icon>Parking</onx:icon></extensions></wpt><wpt lat="42.738" lon="-121.98"><name>US-9556 Jackson F. Kimball State Recreation Area</name><desc>CN92ar
https://pota.app/#/park/US-9556
Activations: 9/9
qsos: 137</desc><extensions><onx:color>rgba(255, 51, 0, 1)</onx:color><onx:icon>Parking</onx:icon></extensions></wpt><wpt lat="43.9882" lon="-122.902"><name>US-9557 Jasper State Recreation Area</name><desc>CN83nx
https://pota.app/#/park/US-9557
Activations: 580/628
qsos: 19376</desc><extensions><onx:color>rgba(255, 51, 0, 1)</onx:color><onx:icon>Parking</onx:icon></extensions></wpt><wpt lat="45.6124" lon="-122.004"><name>US-9558 John B. Yeon State Park</name><desc>CN85xo
https://pota.app/#/park/US-9558
Activations: 15/16
qsos: 228</desc><extensions><onx:color>rgba(255, 51, 0, 1)</onx:color><onx:icon>Parking</onx:icon></extensions></wpt><wpt lat="44.5453" lon="-124.074"><name>US-9559 Lost Creek State Park</name><desc>CN74xn
https://pota.app/#/park/US-9559
Activations: 20/23
qsos: 416</desc><extensions><onx:color>rgba(255, 51, 0, 1)</onx:color><onx:icon>Parking</onx:icon></extensions></wpt><wpt lat="43.922" lon="-122.795"><name>US-9560 Lowell State Recreation Area</name><desc>CN83ow
https://pota.app/#/park/US-9560
Activations: 84/92
qsos: 3073</desc><extensions><onx:color>rgba(255, 51, 0, 1)</onx:color><onx:icon>Parking</onx:icon></extensions></wpt><wpt lat="44.7153" lon="-123.163"><name>US-9561 Luckiamute Landing State Natural Area</name><desc>CN84kr
https://pota.app/#/park/US-9561
Activations: 100/113
qsos: 4978</desc><extensions><onx:color>rgba(255, 51, 0, 1)</onx:color><onx:icon>Parking</onx:icon></extensions></wpt><wpt lat="45.6399" lon="-123.941"><name>US-9562 Manhattan Beach State Recreation Area</name><desc>CN85ap
https://pota.app/#/park/US-9562
Activations: 24/27
qsos: 497</desc><extensions><onx:color>rgba(255, 51, 0, 1)</onx:color><onx:icon>Parking</onx:icon></extensions></wpt><wpt lat="42.0198" lon="-124.236"><name>US-9563 McVay Rock State Recreation Area</name><desc>CN72va
https://pota.app/#/park/US-9563
Activations: 15/20
qsos: 492</desc><extensions><onx:color>rgba(255, 51, 0, 1)</onx:color><onx:icon>Parking</onx:icon></extensions></wpt><wpt lat="45.6216" lon="-117.722"><name>US-9564 Minam State Recreation Area</name><desc>DN15do
https://pota.app/#/park/US-9564
Activations: 10/14
qsos: 160</desc><extensions><onx:color>rgba(255, 51, 0, 1)</onx:color><onx:icon>Parking</onx:icon></extensions></wpt><wpt lat="44.712" lon="-122.194"><name>US-9565 Mongold State Park</name><desc>CN84vr
https://pota.app/#/park/US-9565
Activations: 22/22
qsos: 363</desc><extensions><onx:color>rgba(255, 51, 0, 1)</onx:color><onx:icon>Parking</onx:icon></extensions></wpt><wpt lat="45.3651" lon="-123.773"><name>US-9566 Munson Creek Falls State Natural Area</name><desc>CN85ci
https://pota.app/#/park/US-9566
Activations: 3/5
qsos: 52</desc><extensions><onx:color>rgba(255, 51, 0, 1)</onx:color><onx:icon>Parking</onx:icon></extensions></wpt><wpt lat="45.1034" lon="-123.982"><name>US-9567 Neskowin Beach State Recreation Area</name><desc>CN85ac
https://pota.app/#/park/US-9567
Activations: 13/18
qsos: 170</desc><extensions><onx:color>rgba(255, 51, 0, 1)</onx:color><onx:icon>Parking</onx:icon></extensions></wpt><wpt lat="46.0973" lon="-123.942"><name>US-9568 Ocean Shore State Recreation Area</name><desc>CN86ac
https://pota.app/#/park/US-9568
Activations: 182/192
qsos: 8783</desc><extensions><onx:color>rgba(255, 51, 0, 1)</onx:color><onx:icon>Parking</onx:icon></extensions></wpt><wpt lat="45.4608" lon="-123.97"><name>US-9569 Oceanside Beach State Recreation Area</name><desc>CN85al
https://pota.app/#/park/US-9569
Activations: 13/16
qsos: 198</desc><extensions><onx:color>rgba(255, 51, 0, 1)</onx:color><onx:icon>Parking</onx:icon></extensions></wpt><wpt lat="42.464" lon="-124.422"><name>US-9570 Otter Point State Recreation Area</name><desc>CN72sl
https://pota.app/#/park/US-9570
Activations: 11/12
qsos: 160</desc><extensions><onx:color>rgba(255, 51, 0, 1)</onx:color><onx:icon>Parking</onx:icon></extensions></wpt><wpt lat="42.7603" lon="-124.516"><name>US-9571 Paradise Point State Recreation Area</name><desc>CN72rs
https://pota.app/#/park/US-9571
Activations: 16/18
qsos: 296</desc><extensions><onx:color>rgba(255, 51, 0, 1)</onx:color><onx:icon>Parking</onx:icon></extensions></wpt><wpt lat="43.1326" lon="-118.643"><name>US-9572 Pete French Round Barn State Historic Site</name><desc>DN03qd
https://pota.app/#/park/US-9572
Activations: 10/10
qsos: 300</desc><extensions><onx:color>rgba(255, 51, 0, 1)</onx:color><onx:icon>Parking</onx:icon></extensions></wpt><wpt lat="44.497" lon="-124.083"><name>US-9573 Seal Rock State Recreation Area</name><desc>CN74xl
https://pota.app/#/park/US-9573
Activations: 14/14
qsos: 292</desc><extensions><onx:color>rgba(255, 51, 0, 1)</onx:color><onx:icon>Parking</onx:icon></extensions></wpt><wpt lat="43.2358" lon="-124.39"><name>US-9574 Seven Devils State Recreation Area</name><desc>CN73tf
https://pota.app/#/park/US-9574
Activations: 66/69
qsos: 4206</desc><extensions><onx:color>rgba(255, 51, 0, 1)</onx:color><onx:icon>Parking</onx:icon></extensions></wpt><wpt lat="45.2629" lon="-123.955"><name>US-9575 Sitka Sedge State Natural Area</name><desc>CN85ag
https://pota.app/#/park/US-9575
Activations: 14/15
qsos: 203</desc><extensions><onx:color>rgba(255, 51, 0, 1)</onx:color><onx:icon>Parking</onx:icon></extensions></wpt><wpt lat="44.322" lon="-124.106"><name>US-9576 Smelt Sands State Recreation Area</name><desc>CN74wh
https://pota.app/#/park/US-9576
Activations: 18/19
qsos: 244</desc><extensions><onx:color>rgba(255, 51, 0, 1)</onx:color><onx:icon>Parking</onx:icon></extensions></wpt><wpt lat="44.2233" lon="-124.111"><name>US-9577 Stonefield Beach State Recreation Area</name><desc>CN74wf
https://pota.app/#/park/US-9577
Activations: 6/6
qsos: 91</desc><extensions><onx:color>rgba(255, 51, 0, 1)</onx:color><onx:icon>Parking</onx:icon></extensions></wpt><wpt lat="44.7416" lon="-118.203"><name>US-9578 Sumpter Valley Dredge State Historic Site</name><desc>DN04vr
https://pota.app/#/park/US-9578
Activations: 13/14
qsos: 397</desc><extensions><onx:color>rgba(255, 51, 0, 1)</onx:color><onx:icon>Parking</onx:icon></extensions></wpt><wpt lat="46.0991" lon="-123.939"><name>US-9579 Sunset Beach State Recreation Area</name><desc>CN86ac
https://pota.app/#/park/US-9579
Activations: 62/70
qsos: 4142</desc><extensions><onx:color>rgba(255, 51, 0, 1)</onx:color><onx:icon>Parking</onx:icon></extensions></wpt><wpt lat="44.2083" lon="-124.115"><name>US-9580 Tokatee Klootchman State Natural Area</name><desc>CN74we
https://pota.app/#/park/US-9580
Activations: 4/5
qsos: 72</desc><extensions><onx:color>rgba(255, 51, 0, 1)</onx:color><onx:icon>Parking</onx:icon></extensions></wpt><wpt lat="45.8726" lon="-123.961"><name>US-9581 Tolovana Beach State Recreation Area</name><desc>CN85au
https://pota.app/#/park/US-9581
Activations: 50/65
qsos: 2344</desc><extensions><onx:color>rgba(255, 51, 0, 1)</onx:color><onx:icon>Parking</onx:icon></extensions></wpt><wpt lat="42.7463" lon="-124.51"><name>US-9582 Tseriadun State Recreation Area</name><desc>CN72rr
https://pota.app/#/park/US-9582
Activations: 25/26
qsos: 428</desc><extensions><onx:color>rgba(255, 51, 0, 1)</onx:color><onx:icon>Parking</onx:icon></extensions></wpt><wpt lat="44.4155" lon="-124.035"><name>US-9583 W.B. Nelson State Park</name><desc>CN74xj
https://pota.app/#/park/US-9583
Activations: 10/10
qsos: 166</desc><extensions><onx:color>rgba(255, 51, 0, 1)</onx:color><onx:icon>Parking</onx:icon></extensions></wpt><wpt lat="45.5212" lon="-122.743"><name>US-9584 Willamette Stone State Historic Site</name><desc>CN85pm
https://pota.app/#/park/US-9584
Activations: 62/82
qsos: 1173</desc><extensions><onx:color>rgba(255, 51, 0, 1)</onx:color><onx:icon>Parking</onx:icon></extensions></wpt><wpt lat="42.007" lon="-124.212"><name>US-9585 Winchuck State Recreation Area</name><desc>CN72va
https://pota.app/#/park/US-9585
Activations: 11/11
qsos: 331</desc><extensions><onx:color>rgba(255, 51, 0, 1)</onx:color><onx:icon>Parking</onx:icon></extensions></wpt><wpt lat="44.3107" lon="-124.107"><name>US-9586 Yachats State Recreation Area</name><desc>CN74wh
https://pota.app/#/park/US-9586
Activations: 21/24
qsos: 396</desc><extensions><onx:color>rgba(255, 51, 0, 1)</onx:color><onx:icon>Parking</onx:icon></extensions></wpt><wpt lat="44.3078" lon="-124.103"><name>US-9587 Yachats Ocean Road State Natural Area</name><desc>CN74wh
https://pota.app/#/park/US-9587
Activations: 16/18
qsos: 314</desc><extensions><onx:color>rgba(255, 51, 0, 1)</onx:color><onx:icon>Parking</onx:icon></extensions></wpt><wpt lat="44.624" lon="-124.064"><name>US-9588 Yaquina Bay State Recreation Area</name><desc>CN74xo
https://pota.app/#/park/US-9588
Activations: 52/56
qsos: 1131</desc><extensions><onx:color>rgba(255, 51, 0, 1)</onx:color><onx:icon>Parking</onx:icon></extensions></wpt><wpt lat="45.3955" lon="-123.056"><name>US-9787 Bald Peak State Park</name><desc>CN85lj
https://pota.app/#/park/US-9787
Activations: 156/173
qsos: 4984</desc><extensions><onx:color>rgba(255, 51, 0, 1)</onx:color><onx:icon>Parking</onx:icon></extensions></wpt><wpt lat="44.0602" lon="-121.283"><name>US-9976 Pilot Butte State Park</name><desc>CN94ib
https://pota.app/#/park/US-9976
Activations: 51/59
qsos: 1021</desc><extensions><onx:color>rgba(255, 51, 0, 1)</onx:color><onx:icon>Parking</onx:icon></extensions></wpt><wpt lat="42.8565" lon="-124.52"><name>US-9977 Floras Lake State Natural Area</name><desc>CN72ru
https://pota.app/#/park/US-9977
Activations: 14/14
qsos: 272</desc><extensions><onx:color>rgba(255, 51, 0, 1)</onx:color><onx:icon>Parking</onx:icon></extensions></wpt><wpt lat="45.5416" lon="-122.378"><name>US-9978 Lewis and Clark State Recreation Area</name><desc>CN85tm
https://pota.app/#/park/US-9978
Activations: 74/86
qsos: 1485</desc><extensions><onx:color>rgba(255, 51, 0, 1)</onx:color><onx:icon>Parking</onx:icon></extensions></wpt><wpt lat="45.5339" lon="-122.262"><name>US-9979 Portland Women's Forum State Park</name><desc>CN85um
https://pota.app/#/park/US-9979
Activations: 102/123
qsos: 3607</desc><extensions><onx:color>rgba(255, 51, 0, 1)</onx:color><onx:icon>Parking</onx:icon></extensions></wpt><wpt lat="43.8085" lon="-123.032"><name>US-9980 Willamette River Greenway and Water State Trail</name><desc>CN83lt
https://pota.app/#/park/US-9980
Activations: 516/560
qsos: 18485</desc><extensions><onx:color>rgba(255, 51, 0, 1)</onx:color><onx:icon>Parking</onx:icon></extensions></wpt><wpt lat="45.0664" lon="-122.49"><name>US-9981 Molalla River Corridor BLM Recreation Management Area</name><desc>CN85sb
https://pota.app/#/park/US-9981
Activations: 14/15
qsos: 322</desc><extensions><onx:color>rgba(255, 51, 0, 1)</onx:color><onx:icon>Parking</onx:icon></extensions></wpt><wpt lat="44.9614" lon="-122.409"><name>US-9982 Table Rock Wilderness Area</name><desc>CN84tx
https://pota.app/#/park/US-9982
Activations: 8/9
qsos: 186</desc><extensions><onx:color>rgba(255, 51, 0, 1)</onx:color><onx:icon>Parking</onx:icon></extensions></wpt><wpt lat="44.9363" lon="-123.716"><name>US-9983 Valley of the Giants Outstanding Natural Area</name><desc>CN84dw
https://pota.app/#/park/US-9983
Activations: 0/0
qsos: 0</desc><extensions><onx:color>rgba(255, 255, 0, 1)</onx:color><onx:icon>Parking</onx:icon></extensions></wpt><wpt lat="45.3939" lon="-122.772"><name>US-9984 Tualatin River Water National Scenic Trail</name><desc>CN85oj
https://pota.app/#/park/US-9984
Activations: 84/95
qsos: 2173</desc><extensions><onx:color>rgba(255, 51, 0, 1)</onx:color><onx:icon>Parking</onx:icon></extensions></wpt><wpt lat="44.2224" lon="-121.576"><name>US-9985 Whychus Creek National Wild and Scenic River</name><desc>CN94ff
https://pota.app/#/park/US-9985
Activations: 9/9
qsos: 213</desc><extensions><onx:color>rgba(255, 51, 0, 1)</onx:color><onx:icon>Parking</onx:icon></extensions></wpt><wpt lat="44.0504" lon="-123.155"><name>US-9986 West Eugene Wetlands BLM Recreation Management Area</name><desc>CN84kb
https://pota.app/#/park/US-9986
Activations: 78/84
qsos: 1915</desc><extensions><onx:color>rgba(255, 51, 0, 1)</onx:color><onx:icon>Parking</onx:icon></extensions></wpt><wpt lat="43.3769" lon="-120.681"><name>US-9987 Four Craters Lava Bed Wilderness Area</name><desc>CN93pj
https://pota.app/#/park/US-9987
Activations: 3/3
qsos: 84</desc><extensions><onx:color>rgba(255, 51, 0, 1)</onx:color><onx:icon>Parking</onx:icon></extensions></wpt><wpt lat="44.0853" lon="-121.126"><name>US-9990 Mayfield Pond BLM Recreation Management Area</name><desc>CN94kc
https://pota.app/#/park/US-9990
Activations: 22/22
qsos: 653</desc><extensions><onx:color>rgba(255, 51, 0, 1)</onx:color><onx:icon>Parking</onx:icon></extensions></wpt><wpt lat="44.2475" lon="-121.178"><name>US-9991 Redmond Caves BLM Recreation Management Area</name><desc>CN94jf
https://pota.app/#/park/US-9991
Activations: 19/19
qsos: 316</desc><extensions><onx:color>rgba(255, 51, 0, 1)</onx:color><onx:icon>Parking</onx:icon></extensions></wpt><wpt lat="45.2828" lon="-123.54"><name>US-9992 Nestucca River National Wild and Scenic River</name><desc>CN85fg
https://pota.app/#/park/US-9992
Activations: 10/11
qsos: 184</desc><extensions><onx:color>rgba(255, 51, 0, 1)</onx:color><onx:icon>Parking</onx:icon></extensions></wpt><wpt lat="45.2665" lon="-123.467"><name>US-9993 Nestucca River OHV BLM Recreation Management Area</name><desc>CN85gg
https://pota.app/#/park/US-9993
Activations: 23/25
qsos: 528</desc><extensions><onx:color>rgba(255, 51, 0, 1)</onx:color><onx:icon>Parking</onx:icon></extensions></wpt><wpt lat="43.6953" lon="-124.039"><name>US-9994 Dean Creek Elk Viewing BLM Recreation Management Area</name><desc>CN73xq
https://pota.app/#/park/US-9994
Activations: 16/20
qsos: 402</desc><extensions><onx:color>rgba(255, 51, 0, 1)</onx:color><onx:icon>Parking</onx:icon></extensions></wpt><wpt lat="44.3254" lon="-123.491"><name>US-9995 Alsea Falls BLM Recreation Management Area</name><desc>CN84gh
https://pota.app/#/park/US-9995
Activations: 9/9
qsos: 260</desc><extensions><onx:color>rgba(255, 51, 0, 1)</onx:color><onx:icon>Parking</onx:icon></extensions></wpt><wpt lat="45.7325" lon="-122.774"><name>US-9996 Sauvie Island State Fish and Wildlife Area</name><desc>CN85or
https://pota.app/#/park/US-9996
Activations: 46/48
qsos: 1477</desc><extensions><onx:color>rgba(255, 51, 0, 1)</onx:color><onx:icon>Parking</onx:icon></extensions></wpt><wpt lat="45.9129" lon="-119.431"><name>US-9997 Irrigon State Fish and Wildlife Area</name><desc>DN05gv
https://pota.app/#/park/US-9997
Activations: 9/9
qsos: 257</desc><extensions><onx:color>rgba(255, 51, 0, 1)</onx:color><onx:icon>Parking</onx:icon></extensions></wpt><wpt lat="45.7825" lon="-120.005"><name>US-9998 Willow Creek State Fish and Wildlife Area</name><desc>CN95xs
https://pota.app/#/park/US-9998
Activations: 5/5
qsos: 125</desc><extensions><onx:color>rgba(255, 51, 0, 1)</onx:color><onx:icon>Parking</onx:icon></extensions></wpt><wpt lat="45.8426" lon="-119.639"><name>US-9999 Coyote Springs State Fish and Wildlife Area</name><desc>DN05eu
https://pota.app/#/park/US-9999
Activations: 6/7
qsos: 216</desc><extensions><onx:color>rgba(255, 51, 0, 1)</onx:color><onx:icon>Parking</onx:icon></extensions></wpt><wpt lat="45.8938" lon="-119.294"><name>US-10000 Power City State Fish and Wildlife Area</name><desc>DN05iv
https://pota.app/#/park/US-10000
Activations: 21/24
qsos: 583</desc><extensions><onx:color>rgba(255, 51, 0, 1)</onx:color><onx:icon>Parking</onx:icon></extensions></wpt><wpt lat="45.9401" lon="-123.528"><name>US-10001 Jewell Meadows State Fish and Wildlife Area</name><desc>CN85fw
https://pota.app/#/park/US-10001
Activations: 13/13
qsos: 269</desc><extensions><onx:color>rgba(255, 51, 0, 1)</onx:color><onx:icon>Parking</onx:icon></extensions></wpt><wpt lat="45.2463" lon="-117.953"><name>US-10002 Ladd Marsh State Fish and Wildlife Area</name><desc>DN15af
https://pota.app/#/park/US-10002
Activations: 11/13
qsos: 297</desc><extensions><onx:color>rgba(255, 51, 0, 1)</onx:color><onx:icon>Parking</onx:icon></extensions></wpt><wpt lat="44.3529" lon="-119.555"><name>US-10003 Phillip W. Schneider State Fish and Wildlife Area</name><desc>DN04fi
https://pota.app/#/park/US-10003
Activations: 3/3
qsos: 95</desc><extensions><onx:color>rgba(255, 51, 0, 1)</onx:color><onx:icon>Parking</onx:icon></extensions></wpt><wpt lat="44.8296" lon="-124.058"><name>US-10007 Oregon Coast State Trail</name><desc>CN74xt
https://pota.app/#/park/US-10007
Activations: 433/442
qsos: 18473</desc><extensions><onx:color>rgba(255, 51, 0, 1)</onx:color><onx:icon>Parking</onx:icon></extensions></wpt><wpt lat="42.0609" lon="-121.754"><name>US-10008 Klamath Hills BLM Recreation Management Area</name><desc>CN92cb
https://pota.app/#/park/US-10008
Activations: 7/9
qsos: 127</desc><extensions><onx:color>rgba(255, 51, 0, 1)</onx:color><onx:icon>Parking</onx:icon></extensions></wpt><wpt lat="43.7776" lon="-123.007"><name>US-10009 Row River National Recreation Trail</name><desc>CN83ls
https://pota.app/#/park/US-10009
Activations: 13/14
qsos: 329</desc><extensions><onx:color>rgba(255, 51, 0, 1)</onx:color><onx:icon>Parking</onx:icon></extensions></wpt><wpt lat="44.7562" lon="-122.513"><name>US-10010 Fishermen's Bend BLM Recreation Management Area</name><desc>CN84rs
https://pota.app/#/park/US-10010
Activations: 19/19
qsos: 478</desc><extensions><onx:color>rgba(255, 51, 0, 1)</onx:color><onx:icon>Parking</onx:icon></extensions></wpt><wpt lat="42.1809" lon="-121.668"><name>US-10011 OC&amp;E Woods Line State Trail State Trail</name><desc>CN92de
https://pota.app/#/park/US-10011
Activations: 11/20
qsos: 181</desc><extensions><onx:color>rgba(255, 51, 0, 1)</onx:color><onx:icon>Parking</onx:icon></extensions></wpt><wpt lat="44.3903" lon="-121.193"><name>US-10012 Peter Skene Ogden State Park</name><desc>CN94jj
https://pota.app/#/park/US-10012
Activations: 17/19
qsos: 466</desc><extensions><onx:color>rgba(255, 51, 0, 1)</onx:color><onx:icon>Parking</onx:icon></extensions></wpt><wpt lat="44.4608" lon="-123.081"><name>US-10013 Thompson's Mills State Historic Site</name><desc>CN84ll
https://pota.app/#/park/US-10013
Activations: 34/40
qsos: 1137</desc><extensions><onx:color>rgba(255, 51, 0, 1)</onx:color><onx:icon>Parking</onx:icon></extensions></wpt><wpt lat="44.0619" lon="-123.355"><name>US-10014 Fern Ridge State Fish and Wildlife Area</name><desc>CN84hb
https://pota.app/#/park/US-10014
Activations: 122/128
qsos: 3211</desc><extensions><onx:color>rgba(255, 51, 0, 1)</onx:color><onx:icon>Parking</onx:icon></extensions></wpt><wpt lat="44.9852" lon="-123.43"><name>US-10016 Mill Creek BLM Recreation Management Area</name><desc>CN84gx
https://pota.app/#/park/US-10016
Activations: 19/19
qsos: 379</desc><extensions><onx:color>rgba(132, 212, 0, 1)</onx:color><onx:icon>Parking</onx:icon></extensions></wpt><wpt lat="44.5491" lon="-122.43"><name>US-10017 Quartzville Creek BLM Wild and Scenic River</name><desc>CN84sn
https://pota.app/#/park/US-10017
Activations: 9/9
qsos: 180</desc><extensions><onx:color>rgba(255, 51, 0, 1)</onx:color><onx:icon>Parking</onx:icon></extensions></wpt><wpt lat="44.1163" lon="-122.442"><name>US-10018 Silver Creek BLM Recreation Management Area</name><desc>CN84sc
https://pota.app/#/park/US-10018
Activations: 3/3
qsos: 68</desc><extensions><onx:color>rgba(255, 51, 0, 1)</onx:color><onx:icon>Parking</onx:icon></extensions></wpt><wpt lat="42.0896" lon="-122.073"><name>US-10019 Klamath BLM Wild and Scenic River</name><desc>CN82xc
https://pota.app/#/park/US-10019
Activations: 3/3
qsos: 123</desc><extensions><onx:color>rgba(255, 51, 0, 1)</onx:color><onx:icon>Parking</onx:icon></extensions></wpt><wpt lat="42.4632" lon="-123.486"><name>US-10020 Rogue River BLM Wild and Scenic River</name><desc>CN82gl
https://pota.app/#/park/US-10020
Activations: 8/8
qsos: 134</desc><extensions><onx:color>rgba(255, 51, 0, 1)</onx:color><onx:icon>Parking</onx:icon></extensions></wpt><wpt lat="42.1236" lon="-122.042"><name>US-10021 Topsy BLM Recreation Management Area</name><desc>CN82xc
https://pota.app/#/park/US-10021
Activations: 4/4
qsos: 110</desc><extensions><onx:color>rgba(255, 51, 0, 1)</onx:color><onx:icon>Parking</onx:icon></extensions></wpt><wpt lat="42.2537" lon="-122.228"><name>US-10022 Surveyor BLM Recreation Management Area</name><desc>CN82vg
https://pota.app/#/park/US-10022
Activations: 5/6
qsos: 105</desc><extensions><onx:color>rgba(255, 51, 0, 1)</onx:color><onx:icon>Parking</onx:icon></extensions></wpt><wpt lat="42.5811" lon="-121.931"><name>US-10023 Wood River BLM Recreation Management Area</name><desc>CN92an
https://pota.app/#/park/US-10023
Activations: 15/15
qsos: 251</desc><extensions><onx:color>rgba(255, 51, 0, 1)</onx:color><onx:icon>Parking</onx:icon></extensions></wpt><wpt lat="43.0713" lon="-120.945"><name>US-10024 Duncan Reservoir BLM Recreation Management Area</name><desc>CN93mb
https://pota.app/#/park/US-10024
Activations: 8/9
qsos: 1006</desc><extensions><onx:color>rgba(255, 51, 0, 1)</onx:color><onx:icon>Parking</onx:icon></extensions></wpt><wpt lat="43.3339" lon="-120.396"><name>US-10025 Lost Forest/Dunes/Fossil BLM Special Recreation Management Area</name><desc>CN93ti
https://pota.app/#/park/US-10025
Activations: 4/4
qsos: 222</desc><extensions><onx:color>rgba(255, 51, 0, 1)</onx:color><onx:icon>Parking</onx:icon></extensions></wpt><wpt lat="43.5228" lon="-120.866"><name>US-10026 Devils Garden Lava Bed Wilderness Area</name><desc>CN93nm
https://pota.app/#/park/US-10026
Activations: 4/4
qsos: 81</desc><extensions><onx:color>rgba(255, 51, 0, 1)</onx:color><onx:icon>Parking</onx:icon></extensions></wpt><wpt lat="44.0626" lon="-120.909"><name>US-10027 Millican Valley OHV BLM Recreation Management Area</name><desc>CN94nb
https://pota.app/#/park/US-10027
Activations: 17/20
qsos: 665</desc><extensions><onx:color>rgba(255, 51, 0, 1)</onx:color><onx:icon>Parking</onx:icon></extensions></wpt><wpt lat="43.9578" lon="-121.052"><name>US-10028 Oregon Badlands BLM Wilderness Area</name><desc>CN93lw
https://pota.app/#/park/US-10028
Activations: 20/21
qsos: 618</desc><extensions><onx:color>rgba(255, 51, 0, 1)</onx:color><onx:icon>Parking</onx:icon></extensions></wpt><wpt lat="43.9605" lon="-124.101"><name>US-10029 Prichard State Park</name><desc>CN73wx
https://pota.app/#/park/US-10029
Activations: 14/16
qsos: 242</desc><extensions><onx:color>rgba(255, 51, 0, 1)</onx:color><onx:icon>Parking</onx:icon></extensions></wpt><wpt lat="44.0643" lon="-121.067"><name>US-10030 Juniper Woodlands BLM Recreation Management Area</name><desc>CN94lb
https://pota.app/#/park/US-10030
Activations: 33/33
qsos: 1376</desc><extensions><onx:color>rgba(255, 51, 0, 1)</onx:color><onx:icon>Parking</onx:icon></extensions></wpt><wpt lat="44.0659" lon="-121.19"><name>US-10032 Airport Allotment BLM Recreation Management Area</name><desc>CN94jb
https://pota.app/#/park/US-10032
Activations: 68/73
qsos: 1221</desc><extensions><onx:color>rgba(255, 51, 0, 1)</onx:color><onx:icon>Parking</onx:icon></extensions></wpt><wpt lat="44.2114" lon="-121.303"><name>US-10053 Maston Area BLM Recreation Management Area</name><desc>CN94if
https://pota.app/#/park/US-10053
Activations: 23/24
qsos: 509</desc><extensions><onx:color>rgba(255, 51, 0, 1)</onx:color><onx:icon>Parking</onx:icon></extensions></wpt><wpt lat="44.2884" lon="-121.335"><name>US-10055 Cline Buttes OHV BLM Recreation Management Area</name><desc>CN94hg
https://pota.app/#/park/US-10055
Activations: 25/26
qsos: 652</desc><extensions><onx:color>rgba(255, 51, 0, 1)</onx:color><onx:icon>Parking</onx:icon></extensions></wpt><wpt lat="44.869" lon="-120.44"><name>US-10056 Spring Basin Wilderness Area</name><desc>CN94su
https://pota.app/#/park/US-10056
Activations: 3/3
qsos: 66</desc><extensions><onx:color>rgba(255, 51, 0, 1)</onx:color><onx:icon>Parking</onx:icon></extensions></wpt><wpt lat="42.4178" lon="-122.866"><name>US-10240 Kenneth Denman State Wildlife Area</name><desc>CN82nk
https://pota.app/#/park/US-10240
Activations: 130/137
qsos: 7797</desc><extensions><onx:color>rgba(255, 51, 0, 1)</onx:color><onx:icon>Parking</onx:icon></extensions></wpt><wpt lat="42.4689" lon="-122.945"><name>US-10242 Table Rocks BLM Special Recreation Management Area</name><desc>CN82ml
https://pota.app/#/park/US-10242
Activations: 15/16
qsos: 608</desc><extensions><onx:color>rgba(255, 51, 0, 1)</onx:color><onx:icon>Parking</onx:icon></extensions></wpt><wpt lat="45.2716" lon="-121.941"><name>US-10249 Salmon River National Wild and Scenic River</name><desc>CN95ag
https://pota.app/#/park/US-10249
Activations: 41/41
qsos: 1660</desc><extensions><onx:color>rgba(255, 51, 0, 1)</onx:color><onx:icon>Parking</onx:icon></extensions></wpt><wpt lat="45.3032" lon="-121.674"><name>US-10251 White River National Wild and Scenic River</name><desc>CN95dh
https://pota.app/#/park/US-10251
Activations: 19/19
qsos: 586</desc><extensions><onx:color>rgba(255, 51, 0, 1)</onx:color><onx:icon>Parking</onx:icon></extensions></wpt><wpt lat="45.3775" lon="-122.587"><name>US-10355 I-205 Multi-Use State Trail</name><desc>CN85qj
https://pota.app/#/park/US-10355
Activations: 90/101
qsos: 2953</desc><extensions><onx:color>rgba(255, 51, 0, 1)</onx:color><onx:icon>Parking</onx:icon></extensions></wpt><wpt lat="42.4178" lon="-123.156"><name>US-10356 Mountain of the Rogue Trail System BLM Recreation Management Area</name><desc>CN82kk
https://pota.app/#/park/US-10356
Activations: 15/16
qsos: 414</desc><extensions><onx:color>rgba(255, 51, 0, 1)</onx:color><onx:icon>Parking</onx:icon></extensions></wpt><wpt lat="44.2456" lon="-122.863"><name>US-10357 Shotgun Creek OHV BLM Recreation Management Area</name><desc>CN84nf
https://pota.app/#/park/US-10357
Activations: 6/6
qsos: 134</desc><extensions><onx:color>rgba(255, 51, 0, 1)</onx:color><onx:icon>Parking</onx:icon></extensions></wpt><wpt lat="44.2288" lon="-122.846"><name>US-10358 Shotgun Creek BLM Recreation Management Area</name><desc>CN84nf
https://pota.app/#/park/US-10358
Activations: 11/11
qsos: 342</desc><extensions><onx:color>rgba(255, 51, 0, 1)</onx:color><onx:icon>Parking</onx:icon></extensions></wpt><wpt lat="45.355" lon="-121.987"><name>US-10359 Wildwood Recreation Site BLM Recreation Management Area</name><desc>CN95ai
https://pota.app/#/park/US-10359
Activations: 30/30
qsos: 972</desc><extensions><onx:color>rgba(255, 51, 0, 1)</onx:color><onx:icon>Parking</onx:icon></extensions></wpt><wpt lat="45.4071" lon="-122.255"><name>US-10390 Sandy State Fish Hatchery</name><desc>CN85uj
https://pota.app/#/park/US-10390
Activations: 22/22
qsos: 772</desc><extensions><onx:color>rgba(255, 51, 0, 1)</onx:color><onx:icon>Parking</onx:icon></extensions></wpt><wpt lat="44.6756" lon="-124.074"><name>US-10412 Yaquina Head Outstanding Natural Area BLM Special Recreation Management Area</name><desc>CN74xq
https://pota.app/#/park/US-10412
Activations: 17/19
qsos: 330</desc><extensions><onx:color>rgba(255, 51, 0, 1)</onx:color><onx:icon>Parking</onx:icon></extensions></wpt><wpt lat="45.1682" lon="-121.085"><name>US-10471 Maupin Section Foreman House BLM Historic Area</name><desc>CN95ke
https://pota.app/#/park/US-10471
Activations: 9/9
qsos: 191</desc><extensions><onx:color>rgba(255, 51, 0, 1)</onx:color><onx:icon>Parking</onx:icon></extensions></wpt><wpt lat="45.4003" lon="-122.133"><name>US-10472 Marmot BLM Recreation Management Area</name><desc>CN85wj
https://pota.app/#/park/US-10472
Activations: 7/10
qsos: 340</desc><extensions><onx:color>rgba(255, 51, 0, 1)</onx:color><onx:icon>Parking</onx:icon></extensions></wpt><wpt lat="45.3807" lon="-122.03"><name>US-10473 Sandy Ridge BLM Recreation Management Area</name><desc>CN85xj
https://pota.app/#/park/US-10473
Activations: 10/13
qsos: 257</desc><extensions><onx:color>rgba(255, 51, 0, 1)</onx:color><onx:icon>Parking</onx:icon></extensions></wpt><wpt lat="44.7069" lon="-120.171"><name>US-10474 Sutton Mountain Wilderness Area</name><desc>CN94vq
https://pota.app/#/park/US-10474
Activations: 6/6
qsos: 117</desc><extensions><onx:color>rgba(255, 51, 0, 1)</onx:color><onx:icon>Parking</onx:icon></extensions></wpt><wpt lat="44.697" lon="-120.285"><name>US-10475 Pat's Cabin Wilderness Area</name><desc>CN94uq
https://pota.app/#/park/US-10475
Activations: 5/5
qsos: 86</desc><extensions><onx:color>rgba(255, 51, 0, 1)</onx:color><onx:icon>Parking</onx:icon></extensions></wpt><wpt lat="44.8152" lon="-119.424"><name>US-10476 Monument BLM Recreation Management Area</name><desc>DN04gt
https://pota.app/#/park/US-10476
Activations: 1/1
qsos: 13</desc><extensions><onx:color>rgba(255, 51, 0, 1)</onx:color><onx:icon>Parking</onx:icon></extensions></wpt><wpt lat="44.7975" lon="-117.673"><name>US-10477 Virtue Flat Off-Highway Vehicle BLM Recreation Management Area</name><desc>DN14dt
https://pota.app/#/park/US-10477
Activations: 10/10
qsos: 254</desc><extensions><onx:color>rgba(255, 51, 0, 1)</onx:color><onx:icon>Parking</onx:icon></extensions></wpt><wpt lat="44.3761" lon="-117.238"><name>US-10478 Spring BLM Recreation Management Area</name><desc>DN14jj
https://pota.app/#/park/US-10478
Activations: 28/29
qsos: 718</desc><extensions><onx:color>rgba(255, 51, 0, 1)</onx:color><onx:icon>Parking</onx:icon></extensions></wpt><wpt lat="44.2629" lon="-117.128"><name>US-10479 Oasis BLM Recreation Management Area</name><desc>DN14kg
https://pota.app/#/park/US-10479
Activations: 35/38
qsos: 934</desc><extensions><onx:color>rgba(255, 51, 0, 1)</onx:color><onx:icon>Parking</onx:icon></extensions></wpt><wpt lat="43.8034" lon="-118.155"><name>US-10480 Chukar Park BLM Recreation Management Area</name><desc>DN03wt
https://pota.app/#/park/US-10480
Activations: 2/2
qsos: 42</desc><extensions><onx:color>rgba(255, 51, 0, 1)</onx:color><onx:icon>Parking</onx:icon></extensions></wpt><wpt lat="43.6063" lon="-117.255"><name>US-10481 Wild Horse Basin Wilderness Area</name><desc>DN13io
https://pota.app/#/park/US-10481
Activations: 4/4
qsos: 119</desc><extensions><onx:color>rgba(255, 51, 0, 1)</onx:color><onx:icon>Parking</onx:icon></extensions></wpt><wpt lat="43.5533" lon="-118.165"><name>US-10482 Riverside BLM Recreation Management Area</name><desc>DN03wn
https://pota.app/#/park/US-10482
Activations: 1/1
qsos: 15</desc><extensions><onx:color>rgba(255, 51, 0, 1)</onx:color><onx:icon>Parking</onx:icon></extensions></wpt><wpt lat="43.1459" lon="-117.46"><name>US-10483 Jordan Craters Area of Environmental Concern National Nature Reserve</name><desc>DN13gd
https://pota.app/#/park/US-10483
Activations: 2/2
qsos: 129</desc><extensions><onx:color>rgba(255, 51, 0, 1)</onx:color><onx:icon>Parking</onx:icon></extensions></wpt><wpt lat="42.9086" lon="-117.237"><name>US-10484 Antelope Reservoir BLM Recreation Management Area</name><desc>DN12jv
https://pota.app/#/park/US-10484
Activations: 5/6
qsos: 328</desc><extensions><onx:color>rgba(255, 51, 0, 1)</onx:color><onx:icon>Parking</onx:icon></extensions></wpt><wpt lat="43.0516" lon="-117.907"><name>US-10485 Saddle Butte BLM Wilderness Area</name><desc>DN13bb
https://pota.app/#/park/US-10485
Activations: 1/1
qsos: 53</desc><extensions><onx:color>rgba(255, 51, 0, 1)</onx:color><onx:icon>Parking</onx:icon></extensions></wpt><wpt lat="42.4428" lon="-119.827"><name>US-10486 Warner Wetland Reserve</name><desc>DN02ck
https://pota.app/#/park/US-10486
Activations: 1/1
qsos: 41</desc><extensions><onx:color>rgba(255, 51, 0, 1)</onx:color><onx:icon>Parking</onx:icon></extensions></wpt><wpt lat="42.5468" lon="-120.214"><name>US-10487 Lake Abert and Abert Rim BLM Wilderness Area</name><desc>CN92vn
https://pota.app/#/park/US-10487
Activations: 6/6
qsos: 100</desc><extensions><onx:color>rgba(255, 51, 0, 1)</onx:color><onx:icon>Parking</onx:icon></extensions></wpt><wpt lat="42.7232" lon="-119.861"><name>US-10488 Sunstone Collection BLM Recreation Management Area</name><desc>DN02br
https://pota.app/#/park/US-10488
Activations: 4/4
qsos: 148</desc><extensions><onx:color>rgba(255, 51, 0, 1)</onx:color><onx:icon>Parking</onx:icon></extensions></wpt><wpt lat="43.5464" lon="-119.613"><name>US-10489 Chikahominy BLM Recreation Management Area</name><desc>DN03en
https://pota.app/#/park/US-10489
Activations: 13/14
qsos: 278</desc><extensions><onx:color>rgba(255, 51, 0, 1)</onx:color><onx:icon>Parking</onx:icon></extensions></wpt><wpt lat="43.4082" lon="-119.399"><name>US-10490 Moon Reservoir BLM Recreation Management Area</name><desc>DN03hj
https://pota.app/#/park/US-10490
Activations: 2/2
qsos: 74</desc><extensions><onx:color>rgba(255, 51, 0, 1)</onx:color><onx:icon>Parking</onx:icon></extensions></wpt><wpt lat="43.5609" lon="-119.136"><name>US-10491 Radar Hill BLM Recreation Management Area</name><desc>DN03kn
https://pota.app/#/park/US-10491
Activations: 16/16
qsos: 492</desc><extensions><onx:color>rgba(255, 51, 0, 1)</onx:color><onx:icon>Parking</onx:icon></extensions></wpt><wpt lat="42.2887" lon="-123.231"><name>US-10492 Provolt BLM Recreation Management Area</name><desc>CN82jg
https://pota.app/#/park/US-10492
Activations: 8/11
qsos: 378</desc><extensions><onx:color>rgba(255, 51, 0, 1)</onx:color><onx:icon>Parking</onx:icon></extensions></wpt><wpt lat="42.1126" lon="-122.93"><name>US-10493 Kenney Meadows BLM Recreation Management Area</name><desc>CN82mc
https://pota.app/#/park/US-10493
Activations: 3/3
qsos: 87</desc><extensions><onx:color>rgba(255, 51, 0, 1)</onx:color><onx:icon>Parking</onx:icon></extensions></wpt><wpt lat="43.3806" lon="-122.949"><name>US-10494 Millpond BLM Recreation Management Area</name><desc>CN83mj
https://pota.app/#/park/US-10494
Activations: 2/3
qsos: 29</desc><extensions><onx:color>rgba(255, 51, 0, 1)</onx:color><onx:icon>Parking</onx:icon></extensions></wpt><wpt lat="43.3981" lon="-122.93"><name>US-10495 Rock Creek BLM Recreation Management Area</name><desc>CN83mj
https://pota.app/#/park/US-10495
Activations: 2/2
qsos: 35</desc><extensions><onx:color>rgba(255, 51, 0, 1)</onx:color><onx:icon>Parking</onx:icon></extensions></wpt><wpt lat="43.6652" lon="-122.807"><name>US-10496 Sharps Creek BLM Recreation Management Area</name><desc>CN83op
https://pota.app/#/park/US-10496
Activations: 4/4
qsos: 117</desc><extensions><onx:color>rgba(255, 51, 0, 1)</onx:color><onx:icon>Parking</onx:icon></extensions></wpt><wpt lat="43.905" lon="-123.569"><name>US-10497 Clay Creek BLM Recreation Management Area</name><desc>CN83fv
https://pota.app/#/park/US-10497
Activations: 4/4
qsos: 70</desc><extensions><onx:color>rgba(255, 51, 0, 1)</onx:color><onx:icon>Parking</onx:icon></extensions></wpt><wpt lat="43.986" lon="-123.665"><name>US-10498 Whittaker Creek BLM Recreation Management Area</name><desc>CN83ex
https://pota.app/#/park/US-10498
Activations: 5/6
qsos: 83</desc><extensions><onx:color>rgba(255, 51, 0, 1)</onx:color><onx:icon>Parking</onx:icon></extensions></wpt><wpt lat="44.1594" lon="-123.573"><name>US-10499 Lake Creek Falls BLM Recreation Management Area</name><desc>CN84fd
https://pota.app/#/park/US-10499
Activations: 17/18
qsos: 408</desc><extensions><onx:color>rgba(255, 51, 0, 1)</onx:color><onx:icon>Parking</onx:icon></extensions></wpt><wpt lat="42.9524" lon="-120.787"><name>US-10500 Summer Lake State Wildlife Area</name><desc>CN92ow
https://pota.app/#/park/US-10500
Activations: 2/3
qsos: 135</desc><extensions><onx:color>rgba(255, 51, 0, 1)</onx:color><onx:icon>Parking</onx:icon></extensions></wpt><wpt lat="44.7" lon="-123.211"><name>US-10501 E.E. Wilson State Wildlife Area</name><desc>CN84jq
https://pota.app/#/park/US-10501
Activations: 32/37
qsos: 710</desc><extensions><onx:color>rgba(255, 51, 0, 1)</onx:color><onx:icon>Parking</onx:icon></extensions></wpt><wpt lat="45.0235" lon="-118.075"><name>US-10502 Elkhorn State Wildlife Area</name><desc>DN05xa
https://pota.app/#/park/US-10502
Activations: 5/5
qsos: 81</desc><extensions><onx:color>rgba(255, 51, 0, 1)</onx:color><onx:icon>Parking</onx:icon></extensions></wpt><wpt lat="45.2377" lon="-121.353"><name>US-10503 White River State Wildlife Area</name><desc>CN95hf
https://pota.app/#/park/US-10503
Activations: 9/9
qsos: 394</desc><extensions><onx:color>rgba(255, 51, 0, 1)</onx:color><onx:icon>Parking</onx:icon></extensions></wpt><wpt lat="42.2382" lon="-119.52"><name>US-10504 Historic Shirk Ranch BLM Historic Area</name><desc>DN02ff
https://pota.app/#/park/US-10504
Activations: 2/2
qsos: 39</desc><extensions><onx:color>rgba(255, 51, 0, 1)</onx:color><onx:icon>Parking</onx:icon></extensions></wpt><wpt lat="42.2592" lon="-119.542"><name>US-10505 Guano Creek BLM Wilderness Area</name><desc>DN02fg
https://pota.app/#/park/US-10505
Activations: 1/1
qsos: 21</desc><extensions><onx:color>rgba(255, 51, 0, 1)</onx:color><onx:icon>Parking</onx:icon></extensions></wpt><wpt lat="45.4283" lon="-122.376"><name>US-10506 Estacada- Boring State Trail</name><desc>CN85tk
https://pota.app/#/park/US-10506
Activations: 42/42
qsos: 1189</desc><extensions><onx:color>rgba(255, 51, 0, 1)</onx:color><onx:icon>Parking</onx:icon></extensions></wpt><wpt lat="43.4124" lon="-117.172"><name>US-10537 Three Fingers BLM Herd Management Area</name><desc>DN13jj
https://pota.app/#/park/US-10537
Activations: 10/10
qsos: 134</desc><extensions><onx:color>rgba(255, 51, 0, 1)</onx:color><onx:icon>Parking</onx:icon></extensions></wpt><wpt lat="42.6438" lon="-117.547"><name>US-10538 Jackies Butte BLM Herd Management Area</name><desc>DN12fp
https://pota.app/#/park/US-10538
Activations: 1/1
qsos: 11</desc><extensions><onx:color>rgba(255, 51, 0, 1)</onx:color><onx:icon>Parking</onx:icon></extensions></wpt><wpt lat="44.1698" lon="-124.116"><name>US-10605 Muriel O. Ponsler Memorial State Park</name><desc>CN74we
https://pota.app/#/park/US-10605
Activations: 8/9
qsos: 123</desc><extensions><onx:color>rgba(255, 51, 0, 1)</onx:color><onx:icon>Parking</onx:icon></extensions></wpt><wpt lat="44.2683" lon="-121.255"><name>US-10606 Cline Falls State Park</name><desc>CN94ig
https://pota.app/#/park/US-10606
Activations: 22/22
qsos: 332</desc><extensions><onx:color>rgba(255, 51, 0, 1)</onx:color><onx:icon>Parking</onx:icon></extensions></wpt><wpt lat="46.1712" lon="-123.437"><name>US-10607 Bradley State Park</name><desc>CN86ge
https://pota.app/#/park/US-10607
Activations: 35/36
qsos: 2184</desc><extensions><onx:color>rgba(255, 51, 0, 1)</onx:color><onx:icon>Parking</onx:icon></extensions></wpt><wpt lat="44.8294" lon="-124.065"><name>US-10608 Boiler Bay State Park</name><desc>CN74xt
https://pota.app/#/park/US-10608
Activations: 28/35
qsos: 573</desc><extensions><onx:color>rgba(255, 51, 0, 1)</onx:color><onx:icon>Parking</onx:icon></extensions></wpt><wpt lat="43.7126" lon="-124.1"><name>US-10609 Bolon Island Tideways State Park</name><desc>CN73wr
https://pota.app/#/park/US-10609
Activations: 13/13
qsos: 285</desc><extensions><onx:color>rgba(255, 51, 0, 1)</onx:color><onx:icon>Parking</onx:icon></extensions></wpt><wpt lat="44.4151" lon="-122.676"><name>US-10610 South Santiam State Fish Hatchery</name><desc>CN84pj
https://pota.app/#/park/US-10610
Activations: 10/10
qsos: 315</desc><extensions><onx:color>rgba(255, 51, 0, 1)</onx:color><onx:icon>Parking</onx:icon></extensions></wpt><wpt lat="45.7328" lon="-117.865"><name>US-10611 Lookingglass Hatchery State Fish Hatchery</name><desc>DN15br
https://pota.app/#/park/US-10611
Activations: 1/1
qsos: 11</desc><extensions><onx:color>rgba(255, 51, 0, 1)</onx:color><onx:icon>Parking</onx:icon></extensions></wpt><wpt lat="44.5223" lon="-121.632"><name>US-10612 Wizard Falls State Fish Hatchery</name><desc>CN94em
https://pota.app/#/park/US-10612
Activations: 10/10
qsos: 191</desc><extensions><onx:color>rgba(255, 51, 0, 1)</onx:color><onx:icon>Parking</onx:icon></extensions></wpt><wpt lat="42.6626" lon="-122.685"><name>US-10613 Cole M. Rivers State Fish Hatchery</name><desc>CN82pp
https://pota.app/#/park/US-10613
Activations: 18/18
qsos: 628</desc><extensions><onx:color>rgba(255, 51, 0, 1)</onx:color><onx:icon>Parking</onx:icon></extensions></wpt><wpt lat="42.361" lon="-123.419"><name>US-10733 Bolt Mountain BLM Historic Trail</name><desc>CN82gi
https://pota.app/#/park/US-10733
Activations: 3/3
qsos: 79</desc><extensions><onx:color>rgba(255, 51, 0, 1)</onx:color><onx:icon>Parking</onx:icon></extensions></wpt><wpt lat="42.2452" lon="-122.978"><name>US-10734 East Applegate Ridge Trail BLM Historic Trail</name><desc>CN82mf
https://pota.app/#/park/US-10734
Activations: 10/10
qsos: 530</desc><extensions><onx:color>rgba(255, 51, 0, 1)</onx:color><onx:icon>Parking</onx:icon></extensions></wpt><wpt lat="42.0285" lon="-119.447"><name>US-10735 Beaty Butte HMA BLM Herd Management Area</name><desc>DN02ga
https://pota.app/#/park/US-10735
Activations: 2/2
qsos: 39</desc><extensions><onx:color>rgba(255, 51, 0, 1)</onx:color><onx:icon>Parking</onx:icon></extensions></wpt><wpt lat="43.4394" lon="-117.786"><name>US-10736 Cold Springs HMA BLM Herd Management Area</name><desc>DN13ck
https://pota.app/#/park/US-10736
Activations: 1/1
qsos: 113</desc><extensions><onx:color>rgba(255, 51, 0, 1)</onx:color><onx:icon>Parking</onx:icon></extensions></wpt><wpt lat="42.5581" lon="-118.09"><name>US-10737 Coyote Lake/Alvord Tule Springs HMA BLM Herd Management Area</name><desc>DN02wn
https://pota.app/#/park/US-10737
Activations: 2/2
qsos: 40</desc><extensions><onx:color>rgba(255, 51, 0, 1)</onx:color><onx:icon>Parking</onx:icon></extensions></wpt><wpt lat="43.8297" lon="-117.721"><name>US-10738 Hog Creek HMA BLM Herd Management Area</name><desc>DN13dt
https://pota.app/#/park/US-10738
Activations: 3/3
qsos: 63</desc><extensions><onx:color>rgba(255, 51, 0, 1)</onx:color><onx:icon>Parking</onx:icon></extensions></wpt><wpt lat="42.9953" lon="-118.606"><name>US-10739 Kiger HMA BLM Herd Management Area</name><desc>DN02qx
https://pota.app/#/park/US-10739
Activations: 4/4
qsos: 98</desc><extensions><onx:color>rgba(255, 51, 0, 1)</onx:color><onx:icon>Parking</onx:icon></extensions></wpt><wpt lat="43.9948" lon="-120.089"><name>US-10740 Liggett Table BLM Herd Management Area</name><desc>CN93wx
https://pota.app/#/park/US-10740
Activations: 3/3
qsos: 59</desc><extensions><onx:color>rgba(255, 51, 0, 1)</onx:color><onx:icon>Parking</onx:icon></extensions></wpt><wpt lat="44.1923" lon="-119.526"><name>US-10741 Murderer's Creek BLM Herd Management Area</name><desc>DN04fe
https://pota.app/#/park/US-10741
Activations: 2/2
qsos: 43</desc><extensions><onx:color>rgba(255, 51, 0, 1)</onx:color><onx:icon>Parking</onx:icon></extensions></wpt><wpt lat="42.9611" lon="-120.386"><name>US-10742 Paisley Desert BLM Herd Management Area</name><desc>CN92tx
https://pota.app/#/park/US-10742
Activations: 2/2
qsos: 58</desc><extensions><onx:color>rgba(255, 51, 0, 1)</onx:color><onx:icon>Parking</onx:icon></extensions></wpt><wpt lat="43.4219" lon="-119.208"><name>US-10743 Palomino Butte BLM Herd Management Area</name><desc>DN03jk
https://pota.app/#/park/US-10743
Activations: 2/2
qsos: 75</desc><extensions><onx:color>rgba(255, 51, 0, 1)</onx:color><onx:icon>Parking</onx:icon></extensions></wpt><wpt lat="42.0562" lon="-122.203"><name>US-10744 Pokegama BLM Herd Management Area</name><desc>CN82vb
https://pota.app/#/park/US-10744
Activations: 3/3
qsos: 136</desc><extensions><onx:color>rgba(255, 51, 0, 1)</onx:color><onx:icon>Parking</onx:icon></extensions></wpt><wpt lat="43.0492" lon="-118.325"><name>US-10745 Riddle Mountain BLM Herd Management Area</name><desc>DN03ub
https://pota.app/#/park/US-10745
Activations: 1/1
qsos: 21</desc><extensions><onx:color>rgba(255, 51, 0, 1)</onx:color><onx:icon>Parking</onx:icon></extensions></wpt><wpt lat="43.0296" lon="-117.746"><name>US-10746 Sand Springs BLM Herd Management Area</name><desc>DN13da
https://pota.app/#/park/US-10746
Activations: 1/1
qsos: 53</desc><extensions><onx:color>rgba(255, 51, 0, 1)</onx:color><onx:icon>Parking</onx:icon></extensions></wpt><wpt lat="42.8233" lon="-118.039"><name>US-10747 Sheepshead/Heath Creek BLM Herd Management Area</name><desc>DN02xt
https://pota.app/#/park/US-10747
Activations: 3/3
qsos: 81</desc><extensions><onx:color>rgba(255, 51, 0, 1)</onx:color><onx:icon>Parking</onx:icon></extensions></wpt><wpt lat="42.5336" lon="-118.714"><name>US-10748 South Steens BLM Herd Management Area</name><desc>DN02pm
https://pota.app/#/park/US-10748
Activations: 4/4
qsos: 129</desc><extensions><onx:color>rgba(255, 51, 0, 1)</onx:color><onx:icon>Parking</onx:icon></extensions></wpt><wpt lat="43.5791" lon="-118.433"><name>US-10749 Stinkingwater BLM Herd Management Area</name><desc>DN03sn
https://pota.app/#/park/US-10749
Activations: 3/3
qsos: 82</desc><extensions><onx:color>rgba(255, 51, 0, 1)</onx:color><onx:icon>Parking</onx:icon></extensions></wpt><wpt lat="43.1069" lon="-119.201"><name>US-10750 Warm Springs BLM Herd Management Area</name><desc>DN03jc
https://pota.app/#/park/US-10750
Activations: 1/1
qsos: 20</desc><extensions><onx:color>rgba(255, 51, 0, 1)</onx:color><onx:icon>Parking</onx:icon></extensions></wpt><wpt lat="44.3909" lon="-122.511"><name>US-10752 Cascadia short bridge day use National Recreation Area</name><desc>CN84rj
https://pota.app/#/park/US-10752
Activations: 24/24
qsos: 505</desc><extensions><onx:color>rgba(255, 51, 0, 1)</onx:color><onx:icon>Parking</onx:icon></extensions></wpt><wpt lat="42.2311" lon="-123.004"><name>US-10753 Woodrat Mountain Paragliding BLM Recreation Management Area</name><desc>CN82lf
https://pota.app/#/park/US-10753
Activations: 49/49
qsos: 3620</desc><extensions><onx:color>rgba(255, 51, 0, 1)</onx:color><onx:icon>Parking</onx:icon></extensions></wpt><wpt lat="42.2332" lon="-123.661"><name>US-10754 Eight Dollar Mountain Botanical Wayside BLM Recreation Management Area</name><desc>CN82ef
https://pota.app/#/park/US-10754
Activations: 5/5
qsos: 109</desc><extensions><onx:color>rgba(255, 51, 0, 1)</onx:color><onx:icon>Parking</onx:icon></extensions></wpt><wpt lat="42.394" lon="-123.334"><name>US-10755 Cathedral Hills Trail System BLM Recreation Management Area</name><desc>CN82hj
https://pota.app/#/park/US-10755
Activations: 7/7
qsos: 158</desc><extensions><onx:color>rgba(255, 51, 0, 1)</onx:color><onx:icon>Parking</onx:icon></extensions></wpt><wpt lat="42.1608" lon="-122.915"><name>US-10757 Sterling Mine Ditch Trail BLM Historic Trail</name><desc>CN82nd
https://pota.app/#/park/US-10757
Activations: 5/5
qsos: 223</desc><extensions><onx:color>rgba(255, 51, 0, 1)</onx:color><onx:icon>Parking</onx:icon></extensions></wpt><wpt lat="42.722" lon="-123.878"><name>US-10760 Wild Rogue BLM Wilderness Area</name><desc>CN82br
https://pota.app/#/park/US-10760
Activations: 3/3
qsos: 52</desc><extensions><onx:color>rgba(255, 51, 0, 1)</onx:color><onx:icon>Parking</onx:icon></extensions></wpt><wpt lat="42.7188" lon="-123.882"><name>US-10761 Rogue River Ranch BLM Historic Preservation Site</name><desc>CN82br
https://pota.app/#/park/US-10761
Activations: 1/1
qsos: 21</desc><extensions><onx:color>rgba(255, 51, 0, 1)</onx:color><onx:icon>Parking</onx:icon></extensions></wpt><wpt lat="42.3288" lon="-124.426"><name>US-11243 Cape Sebastian Corridor State Recreation Area</name><desc>CN72sh
https://pota.app/#/park/US-11243
Activations: 6/8
qsos: 99</desc><extensions><onx:color>rgba(255, 51, 0, 1)</onx:color><onx:icon>Parking</onx:icon></extensions></wpt><wpt lat="45.2837" lon="-118.971"><name>US-11263 Battle Mountain State Forest</name><desc>DN05mg
https://pota.app/#/park/US-11263
Activations: 5/5
qsos: 100</desc><extensions><onx:color>rgba(255, 51, 0, 1)</onx:color><onx:icon>Parking</onx:icon></extensions></wpt><wpt lat="45.1241" lon="-118.973"><name>US-11264 Ukiah Dale State Forest</name><desc>DN05mc
https://pota.app/#/park/US-11264
Activations: 3/4
qsos: 60</desc><extensions><onx:color>rgba(255, 51, 0, 1)</onx:color><onx:icon>Parking</onx:icon></extensions></wpt><wpt lat="43.6774" lon="-123.933"><name>US-11969 Umpqua State Scenic Corridor State Park</name><desc>CN83aq
https://pota.app/#/park/US-11969
Activations: 7/13
qsos: 136</desc><extensions><onx:color>rgba(255, 51, 0, 1)</onx:color><onx:icon>Parking</onx:icon></extensions></wpt><wpt lat="44.6252" lon="-122.719"><name>US-12082 Roaring River State Fish Hatchery</name><desc>CN84pp
https://pota.app/#/park/US-12082
Activations: 13/13
qsos: 456</desc><extensions><onx:color>rgba(132, 212, 0, 1)</onx:color><onx:icon>Parking</onx:icon></extensions></wpt><wpt lat="45.72" lon="-119.309"><name>US-12179 Echo Meadows BLM Interpretive Site</name><desc>DN05ir
https://pota.app/#/park/US-12179
Activations: 6/6
qsos: 148</desc><extensions><onx:color>rgba(255, 51, 0, 1)</onx:color><onx:icon>Parking</onx:icon></extensions></wpt><wpt lat="42.2753" lon="-124.405"><name>US-12335 Pistol River State Park</name><desc>CN72tg
https://pota.app/#/park/US-12335
Activations: 3/3
qsos: 51</desc><extensions><onx:color>rgba(255, 51, 0, 1)</onx:color><onx:icon>Parking</onx:icon></extensions></wpt><wpt lat="45.9806" lon="-117.392"><name>US-12347 Grande Ronde National Wild and Scenic River</name><desc>DN15hx
https://pota.app/#/park/US-12347
Activations: 2/2
qsos: 31</desc><extensions><onx:color>rgba(255, 51, 0, 1)</onx:color><onx:icon>Parking</onx:icon></extensions></wpt><wpt lat="45.7243" lon="-117.784"><name>US-12348 Wallowa BLM Wild and Scenic River</name><desc>DN15cr
https://pota.app/#/park/US-12348
Activations: 2/2
qsos: 22</desc><extensions><onx:color>rgba(255, 51, 0, 1)</onx:color><onx:icon>Parking</onx:icon></extensions></wpt><wpt lat="42.8035" lon="-118.867"><name>US-12370 Page Springs BLM Recreation Management Area</name><desc>DN02nt
https://pota.app/#/park/US-12370
Activations: 8/8
qsos: 248</desc><extensions><onx:color>rgba(255, 51, 0, 1)</onx:color><onx:icon>Parking</onx:icon></extensions></wpt><wpt lat="44.7847" lon="-124.073"><name>US-12453 Rocky Point Viewpoint State Park</name><desc>CN74xs
https://pota.app/#/park/US-12453
Activations: 4/4
qsos: 64</desc><extensions><onx:color>rgba(255, 51, 0, 1)</onx:color><onx:icon>Parking</onx:icon></extensions></wpt><wpt lat="42.991" lon="-124.461"><name>US-12462 New River BLM Special Recreation Management Area</name><desc>CN72sx
https://pota.app/#/park/US-12462
Activations: 6/6
qsos: 194</desc><extensions><onx:color>rgba(255, 51, 0, 1)</onx:color><onx:icon>Parking</onx:icon></extensions></wpt><wpt lat="43.1053" lon="-124.434"><name>US-12465 Face Rock State Park</name><desc>CN73sc
https://pota.app/#/park/US-12465
Activations: 11/13
qsos: 371</desc><extensions><onx:color>rgba(255, 51, 0, 1)</onx:color><onx:icon>Parking</onx:icon></extensions></wpt><wpt lat="43.2973" lon="-122.894"><name>US-12467 Susan Creek BLM Recreation Management Area</name><desc>CN83nh
https://pota.app/#/park/US-12467
Activations: 2/2
qsos: 68</desc><extensions><onx:color>rgba(255, 51, 0, 1)</onx:color><onx:icon>Parking</onx:icon></extensions></wpt><wpt lat="43.333" lon="-123.005"><name>US-12468 Swiftwater Day Use BLM Recreation Management Area</name><desc>CN83lh
https://pota.app/#/park/US-12468
Activations: 1/1
qsos: 10</desc><extensions><onx:color>rgba(255, 51, 0, 1)</onx:color><onx:icon>Parking</onx:icon></extensions></wpt><wpt lat="43.317" lon="-122.974"><name>US-12469 Baker Wayside BLM Recreation Management Area</name><desc>CN83mh
https://pota.app/#/park/US-12469
Activations: 1/1
qsos: 11</desc><extensions><onx:color>rgba(255, 51, 0, 1)</onx:color><onx:icon>Parking</onx:icon></extensions></wpt><wpt lat="43.3272" lon="-123.005"><name>US-12470 Emerald Waters BLM Recreation Management Area</name><desc>CN83lh
https://pota.app/#/park/US-12470
Activations: 1/1
qsos: 10</desc><extensions><onx:color>rgba(255, 51, 0, 1)</onx:color><onx:icon>Parking</onx:icon></extensions></wpt><wpt lat="43.3169" lon="-123.061"><name>US-12471 Lone Rock BLM Recreation Management Area</name><desc>CN83lh
https://pota.app/#/park/US-12471
Activations: 1/2
qsos: 12</desc><extensions><onx:color>rgba(255, 51, 0, 1)</onx:color><onx:icon>Parking</onx:icon></extensions></wpt><wpt lat="43.3254" lon="-123.203"><name>US-12472 North Bank Habitat BLM Special Recreation Management Area</name><desc>CN83jh
https://pota.app/#/park/US-12472
Activations: 1/1
qsos: 10</desc><extensions><onx:color>rgba(255, 51, 0, 1)</onx:color><onx:icon>Parking</onx:icon></extensions></wpt><wpt lat="43.3797" lon="-122.761"><name>US-12473 Scaredman BLM Recreation Management Area</name><desc>CN83oj
https://pota.app/#/park/US-12473
Activations: 0/0
qsos: 0</desc><extensions><onx:color>rgba(255, 255, 0, 1)</onx:color><onx:icon>Parking</onx:icon></extensions></wpt><wpt lat="43.2468" lon="-122.89"><name>US-12474 E-Mile Day Use BLM Recreation Management Area</name><desc>CN83nf
https://pota.app/#/park/US-12474
Activations: 1/1
qsos: 10</desc><extensions><onx:color>rgba(255, 51, 0, 1)</onx:color><onx:icon>Parking</onx:icon></extensions></wpt><wpt lat="43.2338" lon="-122.951"><name>US-12475 Wolf Creek BLM Special Recreation Management Area</name><desc>CN83mf
https://pota.app/#/park/US-12475
Activations: 1/1
qsos: 16</desc><extensions><onx:color>rgba(255, 51, 0, 1)</onx:color><onx:icon>Parking</onx:icon></extensions></wpt><wpt lat="43.1996" lon="-123.023"><name>US-12476 Cavitt Creek Falls BLM Recreation Management Area</name><desc>CN83le
https://pota.app/#/park/US-12476
Activations: 1/1
qsos: 13</desc><extensions><onx:color>rgba(255, 51, 0, 1)</onx:color><onx:icon>Parking</onx:icon></extensions></wpt><wpt lat="43.2955" lon="-124.335"><name>US-12510 South Slough Reserve State Park Preserve</name><desc>CN73th
https://pota.app/#/park/US-12510
Activations: 7/7
qsos: 174</desc><extensions><onx:color>rgba(255, 51, 0, 1)</onx:color><onx:icon>Parking</onx:icon></extensions></wpt>