<?xml version="1.0" encoding="utf-8" standalone="yes"?>
<gpx version="1.1" creator="Parks on the Air https://www.parksontheair.com/" xmlns="http://www.topografix.com/GPX/1/1" xmlns:xsi="http://www.w3.org/2001/XMLSchema-instance" xsi:schemaLocation="http://www.topografix.com/GPX/1/1 http://www.topografix.com/GPX/1/1/gpx.xsd">
<wpt lat="42.87" lon="-122.144"><name>US-0018 Crater Lake National Park</name><link href="https://pota.app/#/park/US-0018"><text>Park Information</text></link></wpt>
<wpt lat="46.447" lon="-116.824"><name>US-0054 Nez Perce National Historical Park</name><link href="https://pota.app/#/park/US-0054"><text>Park Information</text></link></wpt>
<wpt lat="41.9486" lon="-121.711"><name>US-0199 Lower Klamath National Wildlife Refuge</name><link href="https://pota.app/#/park/US-0199"><text>Park Information</text></link></wpt>
<wpt lat="44.7818" lon="-123.237"><name>US-0200 Sarah Helmick State Recreation Area</name><link href="https://pota.app/#/park/US-0200"><text>Park Information</text></link></wpt>
<wpt lat="45.0959" lon="-123.069"><name>US-0213 Maud Williamson State Recreation Area</name><link href="https://pota.app/#/park/US-0213"><text>Park Information</text></link></wpt>
<wpt lat="45.0387" lon="-123.809"><name>US-0219 H.B. VanDuzer Scenic Corridor State Forest</name><link href="https://pota.app/#/park/US-0219"><text>Park Information</text></link></wpt>
<wpt lat="44.7867" lon="-123.09"><name>US-0494 Ankeny National Wildlife Refuge</name><link href="https://pota.app/#/park/US-0494"><text>Park Information</text></link></wpt>
<wpt lat="43.1574" lon="-124.38"><name>US-0495 Bandon Marsh National Wildlife Refuge</name><link href="https://pota.app/#/park/US-0495"><text>Park Information</text></link></wpt>
<wpt lat="44.962" lon="-123.257"><name>US-0496 Baskett Slough National Wildlife Refuge</name><link href="https://pota.app/#/park/US-0496"><text>Park Information</text></link></wpt>
<wpt lat="45.4859" lon="-123.974"><name>US-0498 Cape Meares National Wildlife Refuge</name><link href="https://pota.app/#/park/US-0498"><text>Park Information</text></link></wpt>
<wpt lat="45.8552" lon="-119.157"><name>US-0499 Cold Springs National Wildlife Refuge</name><link href="https://pota.app/#/park/US-0499"><text>Park Information</text></link></wpt>
<wpt lat="42.5489" lon="-119.655"><name>US-0500 Hart Mountain National Wildlife Refuge</name><link href="https://pota.app/#/park/US-0500"><text>Park Information</text></link></wpt>
<wpt lat="42.9215" lon="-121.726"><name>US-0501 Klamath Marsh National Wildlife Refuge</name><link href="https://pota.app/#/park/US-0501"><text>Park Information</text></link></wpt>
<wpt lat="43.2657" lon="-118.844"><name>US-0502 Malheur National Wildlife Refuge</name><link href="https://pota.app/#/park/US-0502"><text>Park Information</text></link></wpt>
<wpt lat="45.5968" lon="-118.798"><name>US-0503 McKay Creek National Wildlife Refuge</name><link href="https://pota.app/#/park/US-0503"><text>Park Information</text></link></wpt>
<wpt lat="45.1621" lon="-123.952"><name>US-0504 Nestucca Bay National Wildlife Refuge</name><link href="https://pota.app/#/park/US-0504"><text>Park Information</text></link></wpt>
<wpt lat="43.1132" lon="-124.434"><name>US-0505 Oregon Islands National Wildlife Refuge</name><link href="https://pota.app/#/park/US-0505"><text>Park Information</text></link></wpt>
<wpt lat="44.8966" lon="-124.012"><name>US-0506 Siletz Bay National Wildlife Refuge</name><link href="https://pota.app/#/park/US-0506"><text>Park Information</text></link></wpt>
<wpt lat="45.3813" lon="-122.831"><name>US-0508 Tualatin River National Wildlife Refuge</name><link href="https://pota.app/#/park/US-0508"><text>Park Information</text></link></wpt>
<wpt lat="42.5099" lon="-122.089"><name>US-0509 Upper Klamath National Wildlife Refuge</name><link href="https://pota.app/#/park/US-0509"><text>Park Information</text></link></wpt>
<wpt lat="44.4075" lon="-123.341"><name>US-0510 William L. Finley National Wildlife Refuge</name><link href="https://pota.app/#/park/US-0510"><text>Park Information</text></link></wpt>
<wpt lat="46.2322" lon="-123.399"><name>US-0582 Julia Butler Hansen National Wildlife Refuge</name><link href="https://pota.app/#/park/US-0582"><text>Park Information</text></link></wpt>
<wpt lat="46.2092" lon="-123.764"><name>US-0583 Lewis and Clark National Wildlife Refuge</name><link href="https://pota.app/#/park/US-0583"><text>Park Information</text></link></wpt>
<wpt lat="45.9262" lon="-119.624"><name>US-0596 Umatilla National Wildlife Refuge</name><link href="https://pota.app/#/park/US-0596"><text>Park Information</text></link></wpt>
<wpt lat="45.6967" lon="-121.29"><name>US-0731 Columbia River Gorge National Forest</name><link href="https://pota.app/#/park/US-0731"><text>Park Information</text></link></wpt>
<wpt lat="45.6258" lon="-122.655"><name>US-0824 Fort Vancouver National Historic Site</name><link href="https://pota.app/#/park/US-0824"><text>Park Information</text></link></wpt>
<wpt lat="44.5526" lon="-119.645"><name>US-0945 John Day Fossil Beds National Monument</name><link href="https://pota.app/#/park/US-0945"><text>Park Information</text></link></wpt>
<wpt lat="42.0983" lon="-123.409"><name>US-0953 Oregon Caves National Monument</name><link href="https://pota.app/#/park/US-0953"><text>Park Information</text></link></wpt>
<wpt lat="45.5959" lon="-122.051"><name>US-2809 Ainsworth State Park</name><link href="https://pota.app/#/park/US-2809"><text>Park Information</text></link></wpt>
<wpt lat="44.154" lon="-123.424"><name>US-2810 Alderwood Wayside State Park</name><link href="https://pota.app/#/park/US-2810"><text>Park Information</text></link></wpt>
<wpt lat="42.1125" lon="-124.187"><name>US-2811 Alfred A Loeb State Park</name><link href="https://pota.app/#/park/US-2811"><text>Park Information</text></link></wpt>
<wpt lat="44.5925" lon="-118.51"><name>US-2812 Bates State Park</name><link href="https://pota.app/#/park/US-2812"><text>Park Information</text></link></wpt>
<wpt lat="44.729" lon="-124.056"><name>US-2813 Beverly Beach State Park</name><link href="https://pota.app/#/park/US-2813"><text>Park Information</text></link></wpt>
<wpt lat="45.1933" lon="-123.967"><name>US-2814 Bob Straub State Park</name><link href="https://pota.app/#/park/US-2814"><text>Park Information</text></link></wpt>
<wpt lat="44.5179" lon="-124.071"><name>US-2815 Brian Booth State Park</name><link href="https://pota.app/#/park/US-2815"><text>Park Information</text></link></wpt>
<wpt lat="43.1514" lon="-124.402"><name>US-2816 Bullards Beach State Park</name><link href="https://pota.app/#/park/US-2816"><text>Park Information</text></link></wpt>
<wpt lat="43.3063" lon="-124.399"><name>US-2817 Cape Arago State Park</name><link href="https://pota.app/#/park/US-2817"><text>Park Information</text></link></wpt>
<wpt lat="42.8305" lon="-124.548"><name>US-2818 Cape Blanco State Park</name><link href="https://pota.app/#/park/US-2818"><text>Park Information</text></link></wpt>
<wpt lat="45.3558" lon="-123.971"><name>US-2819 Cape Lookout State Park</name><link href="https://pota.app/#/park/US-2819"><text>Park Information</text></link></wpt>
<wpt lat="44.1606" lon="-124.115"><name>US-2820 Carl G. Washburne Memorial State Park</name><link href="https://pota.app/#/park/US-2820"><text>Park Information</text></link></wpt>
<wpt lat="44.3973" lon="-122.481"><name>US-2821 Cascadia State Park</name><link href="https://pota.app/#/park/US-2821"><text>Park Information</text></link></wpt>
<wpt lat="45.1526" lon="-117.742"><name>US-2822 Catherine Creek State Park</name><link href="https://pota.app/#/park/US-2822"><text>Park Information</text></link></wpt>
<wpt lat="42.4068" lon="-120.289"><name>US-2823 Chandler Wayside State Park</name><link href="https://pota.app/#/park/US-2823"><text>Park Information</text></link></wpt>
<wpt lat="42.6428" lon="-121.873"><name>US-2824 Collier Memorial State Park</name><link href="https://pota.app/#/park/US-2824"><text>Park Information</text></link></wpt>
<wpt lat="45.479" lon="-120.469"><name>US-2825 Cottonwood Canyon State Park</name><link href="https://pota.app/#/park/US-2825"><text>Park Information</text></link></wpt>
<wpt lat="45.9391" lon="-123.987"><name>US-2826 Ecola State Park</name><link href="https://pota.app/#/park/US-2826"><text>Park Information</text></link></wpt>
<wpt lat="43.9406" lon="-122.835"><name>US-2827 Elijah Bristow State Park</name><link href="https://pota.app/#/park/US-2827"><text>Park Information</text></link></wpt>
<wpt lat="44.616" lon="-123.63"><name>US-2828 Ellmaker State Wayside State Park</name><link href="https://pota.app/#/park/US-2828"><text>Park Information</text></link></wpt>
<wpt lat="46.1879" lon="-123.969"><name>US-2829 Fort Stevens State Park</name><link href="https://pota.app/#/park/US-2829"><text>Park Information</text></link></wpt>
<wpt lat="45.5397" lon="-122.221"><name>US-2830 Guy W. Talbot State Park</name><link href="https://pota.app/#/park/US-2830"><text>Park Information</text></link></wpt>
<wpt lat="42.0674" lon="-124.311"><name>US-2831 Harris Beach State Park</name><link href="https://pota.app/#/park/US-2831"><text>Park Information</text></link></wpt>
<wpt lat="45.9118" lon="-119.17"><name>US-2832 Hat Rock State Park</name><link href="https://pota.app/#/park/US-2832"><text>Park Information</text></link></wpt>
<wpt lat="45.3421" lon="-118.236"><name>US-2833 Hilgard Junction State Park</name><link href="https://pota.app/#/park/US-2833"><text>Park Information</text></link></wpt>
<wpt lat="43.0353" lon="-124.117"><name>US-2834 Hoffman Memorial State Park</name><link href="https://pota.app/#/park/US-2834"><text>Park Information</text></link></wpt>
<wpt lat="42.6885" lon="-124.433"><name>US-2835 Humbug Mountain State Park</name><link href="https://pota.app/#/park/US-2835"><text>Park Information</text></link></wpt>
<wpt lat="42.1504" lon="-123.653"><name>US-2836 Illinois River Forks State Park</name><link href="https://pota.app/#/park/US-2836"><text>Park Information</text></link></wpt>
<wpt lat="43.9272" lon="-124.109"><name>US-2837 Jessie M. Honeyman Memorial State Park</name><link href="https://pota.app/#/park/US-2837"><text>Park Information</text></link></wpt>
<wpt lat="45.7373" lon="-123.192"><name>US-2838 L.L. Stub Stewart State Park</name><link href="https://pota.app/#/park/US-2838"><text>Park Information</text></link></wpt>
<wpt lat="43.7639" lon="-121.529"><name>US-2839 LaPine State Park</name><link href="https://pota.app/#/park/US-2839"><text>Park Information</text></link></wpt>
<wpt lat="43.6103" lon="-117.257"><name>US-2840 Lake Owyhee State Park</name><link href="https://pota.app/#/park/US-2840"><text>Park Information</text></link></wpt>
<wpt lat="45.6833" lon="-121.289"><name>US-2841 Mayer State Park</name><link href="https://pota.app/#/park/US-2841"><text>Park Information</text></link></wpt>
<wpt lat="45.6954" lon="-121.336"><name>US-2842 Memaloose State Park</name><link href="https://pota.app/#/park/US-2842"><text>Park Information</text></link></wpt>
<wpt lat="45.2986" lon="-122.371"><name>US-2843 Milo McIver State Park</name><link href="https://pota.app/#/park/US-2843"><text>Park Information</text></link></wpt>
<wpt lat="45.2952" lon="-122.701"><name>US-2844 Molalla River State Park</name><link href="https://pota.app/#/park/US-2844"><text>Park Information</text></link></wpt>
<wpt lat="45.686" lon="-123.937"><name>US-2845 Nehalem Bay State Park</name><link href="https://pota.app/#/park/US-2845"><text>Park Information</text></link></wpt>
<wpt lat="44.9381" lon="-123.028"><name>US-2846 Oregon State Capitol State Park</name><link href="https://pota.app/#/park/US-2846"><text>Park Information</text></link></wpt>
<wpt lat="45.7615" lon="-123.958"><name>US-2847 Oswald West State Park</name><link href="https://pota.app/#/park/US-2847"><text>Park Information</text></link></wpt>
<wpt lat="42.7393" lon="-124.511"><name>US-2848 Port Orford Heads State Park</name><link href="https://pota.app/#/park/US-2848"><text>Park Information</text></link></wpt>
<wpt lat="44.1278" lon="-120.723"><name>US-2849 Prineville Reservoir State Park</name><link href="https://pota.app/#/park/US-2849"><text>Park Information</text></link></wpt>
<wpt lat="45.547" lon="-122.236"><name>US-2850 Rooster Rock State Park</name><link href="https://pota.app/#/park/US-2850"><text>Park Information</text></link></wpt>
<wpt lat="43.3232" lon="-124.385"><name>US-2851 Shore Acres State Park</name><link href="https://pota.app/#/park/US-2851"><text>Park Information</text></link></wpt>
<wpt lat="44.8761" lon="-122.653"><name>US-2852 Silver Falls State Park</name><link href="https://pota.app/#/park/US-2852"><text>Park Information</text></link></wpt>
<wpt lat="44.364" lon="-121.14"><name>US-2853 Smith Rock State Park</name><link href="https://pota.app/#/park/US-2853"><text>Park Information</text></link></wpt>
<wpt lat="44.6052" lon="-124.06"><name>US-2854 South Beach State Park</name><link href="https://pota.app/#/park/US-2854"><text>Park Information</text></link></wpt>
<wpt lat="45.6885" lon="-121.69"><name>US-2855 Starvation Creek State Park</name><link href="https://pota.app/#/park/US-2855"><text>Park Information</text></link></wpt>
<wpt lat="43.3306" lon="-124.373"><name>US-2856 Sunset Bay State Park</name><link href="https://pota.app/#/park/US-2856"><text>Park Information</text></link></wpt>
<wpt lat="44.5346" lon="-121.289"><name>US-2857 The Cove Palisades State Park</name><link href="https://pota.app/#/park/US-2857"><text>Park Information</text></link></wpt>
<wpt lat="42.1155" lon="-122.442"><name>US-2858 Tub Springs State Park</name><link href="https://pota.app/#/park/US-2858"><text>Park Information</text></link></wpt>
<wpt lat="44.1273" lon="-121.333"><name>US-2859 Tumalo State Park</name><link href="https://pota.app/#/park/US-2859"><text>Park Information</text></link></wpt>
<wpt lat="43.6628" lon="-124.199"><name>US-2860 Umpqua Lighthouse State Park</name><link href="https://pota.app/#/park/US-2860"><text>Park Information</text></link></wpt>
<wpt lat="42.409" lon="-123.133"><name>US-2861 Valley of the Rogue State Park</name><link href="https://pota.app/#/park/US-2861"><text>Park Information</text></link></wpt>
<wpt lat="45.6979" lon="-121.668"><name>US-2862 Viento State Park</name><link href="https://pota.app/#/park/US-2862"><text>Park Information</text></link></wpt>
<wpt lat="45.2821" lon="-117.213"><name>US-2863 Wallowa Lake State Park</name><link href="https://pota.app/#/park/US-2863"><text>Park Information</text></link></wpt>
<wpt lat="45.6117" lon="-117.63"><name>US-2864 Wallowa Lake Hwy Scenic Corridor State Park</name><link href="https://pota.app/#/park/US-2864"><text>Park Information</text></link></wpt>
<wpt lat="45.2439" lon="-121.097"><name>US-2865 White River Falls State Park</name><link href="https://pota.app/#/park/US-2865"><text>Park Information</text></link></wpt>
<wpt lat="45.0757" lon="-123.04"><name>US-2866 Willamette Mission State Park</name><link href="https://pota.app/#/park/US-2866"><text>Park Information</text></link></wpt>
<wpt lat="43.6018" lon="-124.178"><name>US-2867 William M. Tugman State Park</name><link href="https://pota.app/#/park/US-2867"><text>Park Information</text></link></wpt>
<wpt lat="47.5866" lon="-119.686"><name>US-3424 Ice Age Floods National Geologic Trail</name><link href="https://pota.app/#/park/US-3424"><text>Park Information</text></link></wpt>
<wpt lat="43.9974" lon="-121.406"><name>US-4378 Deschutes National Forest</name><link href="https://pota.app/#/park/US-4378"><text>Park Information</text></link></wpt>
<wpt lat="42.6587" lon="-121.855"><name>US-4379 Fremont-Winema National Forest</name><link href="https://pota.app/#/park/US-4379"><text>Park Information</text></link></wpt>
<wpt lat="44.3193" lon="-118.675"><name>US-4380 Malheur National Forest</name><link href="https://pota.app/#/park/US-4380"><text>Park Information</text></link></wpt>
<wpt lat="45.3102" lon="-121.642"><name>US-4381 Mount Hood National Forest</name><link href="https://pota.app/#/park/US-4381"><text>Park Information</text></link></wpt>
<wpt lat="44.3762" lon="-120.118"><name>US-4382 Ochoco National Forest</name><link href="https://pota.app/#/park/US-4382"><text>Park Information</text></link></wpt>
<wpt lat="41.9816" lon="-123.961"><name>US-4383 Rogue River-Siskiyou National Forest</name><link href="https://pota.app/#/park/US-4383"><text>Park Information</text></link></wpt>
<wpt lat="44.359" lon="-123.824"><name>US-4384 Siuslaw National Forest</name><link href="https://pota.app/#/park/US-4384"><text>Park Information</text></link></wpt>
<wpt lat="45.1946" lon="-118.667"><name>US-4385 Umatilla National Forest</name><link href="https://pota.app/#/park/US-4385"><text>Park Information</text></link></wpt>
<wpt lat="43.2272" lon="-122.69"><name>US-4386 Umpqua National Forest</name><link href="https://pota.app/#/park/US-4386"><text>Park Information</text></link></wpt>
<wpt lat="45.3332" lon="-117.001"><name>US-4387 Wallowa-Whitman National Forest</name><link href="https://pota.app/#/park/US-4387"><text>Park Information</text></link></wpt>
<wpt lat="44.1576" lon="-122.062"><name>US-4388 Willamette National Forest</name><link href="https://pota.app/#/park/US-4388"><text>Park Information</text></link></wpt>
<wpt lat="42.1657" lon="-122.464"><name>US-4389 Cascade-Siskiyou National Monument</name><link href="https://pota.app/#/park/US-4389"><text>Park Information</text></link></wpt>
<wpt lat="43.9096" lon="-121.357"><name>US-4390 Newberry Crater Volcanic National Monument</name><link href="https://pota.app/#/park/US-4390"><text>Park Information</text></link></wpt>
<wpt lat="41.6015" lon="-122.847"><name>US-4457 Klamath National Forest</name><link href="https://pota.app/#/park/US-4457"><text>Park Information</text></link></wpt>
<wpt lat="47.4273" lon="-121.421"><name>US-4562 Pacific Crest Trail National Scenic Trail</name><link href="https://pota.app/#/park/US-4562"><text>Park Information</text></link></wpt>
<wpt lat="38.9943" lon="-94.4833"><name>US-4566 California National Historic Trail</name><link href="https://pota.app/#/park/US-4566"><text>Park Information</text></link></wpt>
<wpt lat="41.2646" lon="-95.9246"><name>US-4572 Lewis and Clark National Historic Trail</name><link href="https://pota.app/#/park/US-4572"><text>Park Information</text></link></wpt>
<wpt lat="46.7468" lon="-114.172"><name>US-4574 Nez Perce National Historic Trail</name><link href="https://pota.app/#/park/US-4574"><text>Park Information</text></link></wpt>
<wpt lat="39.3826" lon="-96.4057"><name>US-4576 Oregon National Historic Trail</name><link href="https://pota.app/#/park/US-4576"><text>Park Information</text></link></wpt>
<wpt lat="46.1762" lon="-123.504"><name>US-5456 Clatsop State Forest</name><link href="https://pota.app/#/park/US-5456"><text>Park Information</text></link></wpt>
<wpt lat="43.446" lon="-124.022"><name>US-5457 Elliott State Forest</name><link href="https://pota.app/#/park/US-5457"><text>Park Information</text></link></wpt>
<wpt lat="43.472" lon="-121.681"><name>US-5458 Gilchrist State Forest</name><link href="https://pota.app/#/park/US-5458"><text>Park Information</text></link></wpt>
<wpt lat="44.7203" lon="-122.446"><name>US-5459 Santiam State Forest</name><link href="https://pota.app/#/park/US-5459"><text>Park Information</text></link></wpt>
<wpt lat="42.738" lon="-121.937"><name>US-5460 Sun Pass State Forest</name><link href="https://pota.app/#/park/US-5460"><text>Park Information</text></link></wpt>
<wpt lat="45.5904" lon="-123.558"><name>US-5461 Tillamook State Forest</name><link href="https://pota.app/#/park/US-5461"><text>Park Information</text></link></wpt>
<wpt lat="46.1335" lon="-123.885"><name>US-5640 Lewis and Clark National Historical Park</name><link href="https://pota.app/#/park/US-5640"><text>Park Information</text></link></wpt>
<wpt lat="43.6408" lon="-110.581"><name>US-6227 Snake River National Wild &amp; Scenic River</name><link href="https://pota.app/#/park/US-6227"><text>Park Information</text></link></wpt>
<wpt lat="45.2513" lon="-122.886"><name>US-6434 Champoeg State Park</name><link href="https://pota.app/#/park/US-6434"><text>Park Information</text></link></wpt>
<wpt lat="45.5412" lon="-118.464"><name>US-6435 Emigrant Springs State Park</name><link href="https://pota.app/#/park/US-6435"><text>Park Information</text></link></wpt>
<wpt lat="44.7703" lon="-122.565"><name>US-6436 North Santiam State Park</name><link href="https://pota.app/#/park/US-6436"><text>Park Information</text></link></wpt>
<wpt lat="45.521" lon="-116.731"><name>US-7361 Hells Canyon National Recreation Area</name><link href="https://pota.app/#/park/US-7361"><text>Park Information</text></link></wpt>
<wpt lat="44.4966" lon="-121.056"><name>US-7482 Crooked River National Grassland</name><link href="https://pota.app/#/park/US-7482"><text>Park Information</text></link></wpt>
<wpt lat="45.008" lon="-124.009"><name>US-8318 Roads End State Recreation Area</name><link href="https://pota.app/#/park/US-8318"><text>Park Information</text></link></wpt>
<wpt lat="45.6334" lon="-120.909"><name>US-9142 Deschutes River State Recreation Area</name><link href="https://pota.app/#/park/US-9142"><text>Park Information</text></link></wpt>
<wpt lat="44.7291" lon="-122.176"><name>US-9143 Detroit Lake State Recreation Area</name><link href="https://pota.app/#/park/US-9143"><text>Park Information</text></link></wpt>
<wpt lat="45.4415" lon="-122.675"><name>US-9144 Tryon Creek State Natural Area</name><link href="https://pota.app/#/park/US-9144"><text>Park Information</text></link></wpt>
<wpt lat="44.9705" lon="-124.013"><name>US-9145 Devils Lake State Recreation Area</name><link href="https://pota.app/#/park/US-9145"><text>Park Information</text></link></wpt>
<wpt lat="43.9716" lon="-122.666"><name>US-9146 Fall Creek State Recreation Area</name><link href="https://pota.app/#/park/US-9146"><text>Park Information</text></link></wpt>
<wpt lat="44.3035" lon="-117.227"><name>US-9147 Farewell Bend State Recreation Area</name><link href="https://pota.app/#/park/US-9147"><text>Park Information</text></link></wpt>
<wpt lat="41.9938" lon="-120.322"><name>US-9148 Goose Lake State Recreation Area</name><link href="https://pota.app/#/park/US-9148"><text>Park Information</text></link></wpt>
<wpt lat="44.0505" lon="-116.975"><name>US-9149 Ontario State Recreation Area</name><link href="https://pota.app/#/park/US-9149"><text>Park Information</text></link></wpt>
<wpt lat="45.9629" lon="-123.69"><name>US-9150 Saddle Mt State Natural Area</name><link href="https://pota.app/#/park/US-9150"><text>Park Information</text></link></wpt>
<wpt lat="43.4536" lon="-117.12"><name>US-9151 Succor Creek State Natural Area</name><link href="https://pota.app/#/park/US-9151"><text>Park Information</text></link></wpt>
<wpt lat="42.4404" lon="-122.889"><name>US-9152 TouVelle State Park State Recreation Area</name><link href="https://pota.app/#/park/US-9152"><text>Park Information</text></link></wpt>
<wpt lat="44.4163" lon="-119.088"><name>US-9153 Clyde Holliday State Recreation Area</name><link href="https://pota.app/#/park/US-9153"><text>Park Information</text></link></wpt>
<wpt lat="44.5001" lon="-118.187"><name>US-9154 Unity Lake State Recreation Area</name><link href="https://pota.app/#/park/US-9154"><text>Park Information</text></link></wpt>
<wpt lat="45.7037" lon="-121.487"><name>US-9155 Historic Columbia River Highway State Trail</name><link href="https://pota.app/#/park/US-9155"><text>Park Information</text></link></wpt>
<wpt lat="44.1582" lon="-120.834"><name>US-9156 Crooked River National Wild and Scenic River</name><link href="https://pota.app/#/park/US-9156"><text>Park Information</text></link></wpt>
<wpt lat="42.8277" lon="-118.887"><name>US-9157 Donner und Blitzen National Wild and Scenic River</name><link href="https://pota.app/#/park/US-9157"><text>Park Information</text></link></wpt>
<wpt lat="44.796" lon="-120.002"><name>US-9158 John Day National Wild and Scenic River</name><link href="https://pota.app/#/park/US-9158"><text>Park Information</text></link></wpt>
<wpt lat="45.3362" lon="-120.948"><name>US-9159 Lower Deschutes National Wild and Scenic River</name><link href="https://pota.app/#/park/US-9159"><text>Park Information</text></link></wpt>
<wpt lat="42.6558" lon="-118.727"><name>US-9160 Steens Mountain BLM Special Recreation Management Area</name><link href="https://pota.app/#/park/US-9160"><text>Park Information</text></link></wpt>
<wpt lat="44.6596" lon="-124.056"><name>US-9523 Agate Beach State Recreation Area</name><link href="https://pota.app/#/park/US-9523"><text>Park Information</text></link></wpt>
<wpt lat="45.5602" lon="-122.173"><name>US-9524 Angel's Rest State Trail</name><link href="https://pota.app/#/park/US-9524"><text>Park Information</text></link></wpt>
<wpt lat="45.8464" lon="-123.96"><name>US-9525 Arcadia Beach State Recreation Area</name><link href="https://pota.app/#/park/US-9525"><text>Park Information</text></link></wpt>
<wpt lat="42.6155" lon="-124.398"><name>US-9526 Arizona Beach State Recreation Area</name><link href="https://pota.app/#/park/US-9526"><text>Park Information</text></link></wpt>
<wpt lat="43.0725" lon="-124.435"><name>US-9527 Bandon State Natural Area</name><link href="https://pota.app/#/park/US-9527"><text>Park Information</text></link></wpt>
<wpt lat="45.7585" lon="-123.202"><name>US-9528 Banks-Vernonia State Trail</name><link href="https://pota.app/#/park/US-9528"><text>Park Information</text></link></wpt>
<wpt lat="44.3833" lon="-124.089"><name>US-9529 Beachside State Recreation Area</name><link href="https://pota.app/#/park/US-9529"><text>Park Information</text></link></wpt>
<wpt lat="45.5767" lon="-122.128"><name>US-9530 Benson State Recreation Area</name><link href="https://pota.app/#/park/US-9530"><text>Park Information</text></link></wpt>
<wpt lat="45.3504" lon="-122.379"><name>US-9531 Bonnie Lure State Recreation Area</name><link href="https://pota.app/#/park/US-9531"><text>Park Information</text></link></wpt>
<wpt lat="45.2186" lon="-123.976"><name>US-9532 Cape Kiwanda State Natural Area</name><link href="https://pota.app/#/park/US-9532"><text>Park Information</text></link></wpt>
<wpt lat="45.2734" lon="-123.95"><name>US-9533 Clay Myers State Natural Area</name><link href="https://pota.app/#/park/US-9533"><text>Park Information</text></link></wpt>
<wpt lat="42.949" lon="-124.106"><name>US-9534 Coquille Myrtle Grove State Natural Site</name><link href="https://pota.app/#/park/US-9534"><text>Park Information</text></link></wpt>
<wpt lat="42.0033" lon="-124.212"><name>US-9535 Crissey Field State Recreation Area</name><link href="https://pota.app/#/park/US-9535"><text>Park Information</text></link></wpt>
<wpt lat="44.9675" lon="-124.017"><name>US-9536 D River State Recreation Area</name><link href="https://pota.app/#/park/US-9536"><text>Park Information</text></link></wpt>
<wpt lat="45.5171" lon="-122.356"><name>US-9537 Dabney State Recreation Area</name><link href="https://pota.app/#/park/US-9537"><text>Park Information</text></link></wpt>
<wpt lat="44.0475" lon="-124.097"><name>US-9538 Darlingtonia State Natural Site</name><link href="https://pota.app/#/park/US-9538"><text>Park Information</text></link></wpt>
<wpt lat="46.0472" lon="-123.929"><name>US-9539 Del Rey Beach State Recreation Area</name><link href="https://pota.app/#/park/US-9539"><text>Park Information</text></link></wpt>
<wpt lat="44.7471" lon="-124.065"><name>US-9540 Devil's Punchbowl State Natural Area</name><link href="https://pota.app/#/park/US-9540"><text>Park Information</text></link></wpt>
<wpt lat="43.9166" lon="-122.813"><name>US-9541 Dexter State Recreation Area</name><link href="https://pota.app/#/park/US-9541"><text>Park Information</text></link></wpt>
<wpt lat="44.4643" lon="-124.08"><name>US-9542 Driftwood Beach State Recreation Area</name><link href="https://pota.app/#/park/US-9542"><text>Park Information</text></link></wpt>
<wpt lat="45.1376" lon="-123.291"><name>US-9543 Erratic Rock State Natural Area</name><link href="https://pota.app/#/park/US-9543"><text>Park Information</text></link></wpt>
<wpt lat="44.8393" lon="-124.049"><name>US-9544 Fogarty Creek State Recreation Area</name><link href="https://pota.app/#/park/US-9544"><text>Park Information</text></link></wpt>
<wpt lat="43.3728" lon="-121.066"><name>US-9545 Fort Rock State Natural Area</name><link href="https://pota.app/#/park/US-9545"><text>Park Information</text></link></wpt>
<wpt lat="45.075" lon="-123.573"><name>US-9546 Fort Yamhill State Historic Site</name><link href="https://pota.app/#/park/US-9546"><text>Park Information</text></link></wpt>
<wpt lat="42.4906" lon="-124.416"><name>US-9547 Geisel Monument State Historic Site</name><link href="https://pota.app/#/park/US-9547"><text>Park Information</text></link></wpt>
<wpt lat="44.8758" lon="-124.037"><name>US-9548 Gleneden Beach State Recreation Area</name><link href="https://pota.app/#/park/US-9548"><text>Park Information</text></link></wpt>
<wpt lat="42.682" lon="-123.331"><name>US-9549 Golden Townsite State Historic Site</name><link href="https://pota.app/#/park/US-9549"><text>Park Information</text></link></wpt>
<wpt lat="43.482" lon="-123.933"><name>US-9550 Golden and Silver Falls State Natural Area</name><link href="https://pota.app/#/park/US-9550"><text>Park Information</text></link></wpt>
<wpt lat="45.57" lon="-122.508"><name>US-9551 Government, Lemon, and McGuire Islands State Recreation Area</name><link href="https://pota.app/#/park/US-9551"><text>Park Information</text></link></wpt>
<wpt lat="44.4141" lon="-124.083"><name>US-9552 Governor Patterson Memorial State Recreation Area</name><link href="https://pota.app/#/park/US-9552"><text>Park Information</text></link></wpt>
<wpt lat="45.6325" lon="-120.915"><name>US-9553 Heritage Landing - Deschutes State Recreation Area</name><link href="https://pota.app/#/park/US-9553"><text>Park Information</text></link></wpt>
<wpt lat="45.8288" lon="-123.961"><name>US-9554 Hug Point State Recreation Area</name><link href="https://pota.app/#/park/US-9554"><text>Park Information</text></link></wpt>
<wpt lat="45.3428" lon="-117.224"><name>US-9555 Iwetemlaykin State Historic Site</name><link href="https://pota.app/#/park/US-9555"><text>Park Information</text></link></wpt>
<wpt lat="42.738" lon="-121.98"><name>US-9556 Jackson F. Kimball State Recreation Area</name><link href="https://pota.app/#/park/US-9556"><text>Park Information</text></link></wpt>
<wpt lat="43.9882" lon="-122.902"><name>US-9557 Jasper State Recreation Area</name><link href="https://pota.app/#/park/US-9557"><text>Park Information</text></link></wpt>
<wpt lat="45.6124" lon="-122.004"><name>US-9558 John B. Yeon State Park</name><link href="https://pota.app/#/park/US-9558"><text>Park Information</text></link></wpt>
<wpt lat="44.5453" lon="-124.074"><name>US-9559 Lost Creek State Park</name><link href="https://pota.app/#/park/US-9559"><text>Park Information</text></link></wpt>
<wpt lat="43.922" lon="-122.795"><name>US-9560 Lowell State Recreation Area</name><link href="https://pota.app/#/park/US-9560"><text>Park Information</text></link></wpt>
<wpt lat="44.7153" lon="-123.163"><name>US-9561 Luckiamute Landing State Natural Area</name><link href="https://pota.app/#/park/US-9561"><text>Park Information</text></link></wpt>
<wpt lat="45.6399" lon="-123.941"><name>US-9562 Manhattan Beach State Recreation Area</name><link href="https://pota.app/#/park/US-9562"><text>Park Information</text></link></wpt>
<wpt lat="42.0198" lon="-124.236"><name>US-9563 McVay Rock State Recreation Area</name><link href="https://pota.app/#/park/US-9563"><text>Park Information</text></link></wpt>
<wpt lat="45.6216" lon="-117.722"><name>US-9564 Minam State Recreation Area</name><link href="https://pota.app/#/park/US-9564"><text>Park Information</text></link></wpt>
<wpt lat="44.712" lon="-122.194"><name>US-9565 Mongold State Park</name><link href="https://pota.app/#/park/US-9565"><text>Park Information</text></link></wpt>
<wpt lat="45.3651" lon="-123.773"><name>US-9566 Munson Creek Falls State Natural Area</name><link href="https://pota.app/#/park/US-9566"><text>Park Information</text></link></wpt>
<wpt lat="45.1034" lon="-123.982"><name>US-9567 Neskowin Beach State Recreation Area</name><link href="https://pota.app/#/park/US-9567"><text>Park Information</text></link></wpt>
<wpt lat="46.0973" lon="-123.942"><name>US-9568 Ocean Shore State Recreation Area</name><link href="https://pota.app/#/park/US-9568"><text>Park Information</text></link></wpt>
<wpt lat="45.4608" lon="-123.97"><name>US-9569 Oceanside Beach State Recreation Area</name><link href="https://pota.app/#/park/US-9569"><text>Park Information</text></link></wpt>
<wpt lat="42.464" lon="-124.422"><name>US-9570 Otter Point State Recreation Area</name><link href="https://pota.app/#/park/US-9570"><text>Park Information</text></link></wpt>
<wpt lat="42.7603" lon="-124.516"><name>US-9571 Paradise Point State Recreation Area</name><link href="https://pota.app/#/park/US-9571"><text>Park Information</text></link></wpt>
<wpt lat="43.1326" lon="-118.643"><name>US-9572 Pete French Round Barn State Historic Site</name><link href="https://pota.app/#/park/US-9572"><text>Park Information</text></link></wpt>
<wpt lat="44.497" lon="-124.083"><name>US-9573 Seal Rock State Recreation Area</name><link href="https://pota.app/#/park/US-9573"><text>Park Information</text></link></wpt>
<wpt lat="43.2358" lon="-124.39"><name>US-9574 Seven Devils State Recreation Area</name><link href="https://pota.app/#/park/US-9574"><text>Park Information</text></link></wpt>
<wpt lat="45.2629" lon="-123.955"><name>US-9575 Sitka Sedge State Natural Area</name><link href="https://pota.app/#/park/US-9575"><text>Park Information</text></link></wpt>
<wpt lat="44.322" lon="-124.106"><name>US-9576 Smelt Sands State Recreation Area</name><link href="https://pota.app/#/park/US-9576"><text>Park Information</text></link></wpt>
<wpt lat="44.2233" lon="-124.111"><name>US-9577 Stonefield Beach State Recreation Area</name><link href="https://pota.app/#/park/US-9577"><text>Park Information</text></link></wpt>
<wpt lat="44.7416" lon="-118.203"><name>US-9578 Sumpter Valley Dredge State Historic Site</name><link href="https://pota.app/#/park/US-9578"><text>Park Information</text></link></wpt>
<wpt lat="46.0991" lon="-123.939"><name>US-9579 Sunset Beach State Recreation Area</name><link href="https://pota.app/#/park/US-9579"><text>Park Information</text></link></wpt>
<wpt lat="44.2083" lon="-124.115"><name>US-9580 Tokatee Klootchman State Natural Area</name><link href="https://pota.app/#/park/US-9580"><text>Park Information</text></link></wpt>
<wpt lat="45.8726" lon="-123.961"><name>US-9581 Tolovana Beach State Recreation Area</name><link href="https://pota.app/#/park/US-9581"><text>Park Information</text></link></wpt>
<wpt lat="42.7463" lon="-124.51"><name>US-9582 Tseriadun State Recreation Area</name><link href="https://pota.app/#/park/US-9582"><text>Park Information</text></link></wpt>
<wpt lat="44.4155" lon="-124.035"><name>US-9583 W.B. Nelson State Park</name><link href="https://pota.app/#/park/US-9583"><text>Park Information</text></link></wpt>
<wpt lat="45.5212" lon="-122.743"><name>US-9584 Willamette Stone State Historic Site</name><link href="https://pota.app/#/park/US-9584"><text>Park Information</text></link></wpt>
<wpt lat="42.007" lon="-124.212"><name>US-9585 Winchuck State Recreation Area</name><link href="https://pota.app/#/park/US-9585"><text>Park Information</text></link></wpt>
<wpt lat="44.3107" lon="-124.107"><name>US-9586 Yachats State Recreation Area</name><link href="https://pota.app/#/park/US-9586"><text>Park Information</text></link></wpt>
<wpt lat="44.3078" lon="-124.103"><name>US-9587 Yachats Ocean Road State Natural Area</name><link href="https://pota.app/#/park/US-9587"><text>Park Information</text></link></wpt>
<wpt lat="44.624" lon="-124.064"><name>US-9588 Yaquina Bay State Recreation Area</name><link href="https://pota.app/#/park/US-9588"><text>Park Information</text></link></wpt>
<wpt lat="45.3955" lon="-123.056"><name>US-9787 Bald Peak State Park</name><link href="https://pota.app/#/park/US-9787"><text>Park Information</text></link></wpt>
<wpt lat="44.0602" lon="-121.283"><name>US-9976 Pilot Butte State Park</name><link href="https://pota.app/#/park/US-9976"><text>Park Information</text></link></wpt>
<wpt lat="42.8565" lon="-124.52"><name>US-9977 Floras Lake State Natural Area</name><link href="https://pota.app/#/park/US-9977"><text>Park Information</text></link></wpt>
<wpt lat="45.5416" lon="-122.378"><name>US-9978 Lewis and Clark State Recreation Area</name><link href="https://pota.app/#/park/US-9978"><text>Park Information</text></link></wpt>
<wpt lat="45.5339" lon="-122.262"><name>US-9979 Portland Women's Forum State Park</name><link href="https://pota.app/#/park/US-9979"><text>Park Information</text></link></wpt>
<wpt lat="43.8085" lon="-123.032"><name>US-9980 Willamette River Greenway and Water State Trail</name><link href="https://pota.app/#/park/US-9980"><text>Park Information</text></link></wpt>
<wpt lat="45.0664" lon="-122.49"><name>US-9981 Molalla River Corridor BLM Recreation Management Area</name><link href="https://pota.app/#/park/US-9981"><text>Park Information</text></link></wpt>
<wpt lat="44.9614" lon="-122.409"><name>US-9982 Table Rock Wilderness Area</name><link href="https://pota.app/#/park/US-9982"><text>Park Information</text></link></wpt>
<wpt lat="44.9363" lon="-123.716"><name>US-9983 Valley of the Giants Outstanding Natural Area</name><link href="https://pota.app/#/park/US-9983"><text>Park Information</text></link></wpt>
<wpt lat="45.3939" lon="-122.772"><name>US-9984 Tualatin River Water National Scenic Trail</name><link href="https://pota.app/#/park/US-9984"><text>Park Information</text></link></wpt>
<wpt lat="44.2224" lon="-121.576"><name>US-9985 Whychus Creek National Wild and Scenic River</name><link href="https://pota.app/#/park/US-9985"><text>Park Information</text></link></wpt>
<wpt lat="44.0504" lon="-123.155"><name>US-9986 West Eugene Wetlands BLM Recreation Management Area</name><link href="https://pota.app/#/park/US-9986"><text>Park Information</text></link></wpt>
<wpt lat="43.3769" lon="-120.681"><name>US-9987 Four Craters Lava Bed Wilderness Area</name><link href="https://pota.app/#/park/US-9987"><text>Park Information</text></link></wpt>
<wpt lat="44.0853" lon="-121.126"><name>US-9990 Mayfield Pond BLM Recreation Management Area</name><link href="https://pota.app/#/park/US-9990"><text>Park Information</text></link></wpt>
<wpt lat="44.2475" lon="-121.178"><name>US-9991 Redmond Caves BLM Recreation Management Area</name><link href="https://pota.app/#/park/US-9991"><text>Park Information</text></link></wpt>
<wpt lat="45.2828" lon="-123.54"><name>US-9992 Nestucca River National Wild and Scenic River</name><link href="https://pota.app/#/park/US-9992"><text>Park Information</text></link></wpt>
<wpt lat="45.2665" lon="-123.467"><name>US-9993 Nestucca River OHV BLM Recreation Management Area</name><link href="https://pota.app/#/park/US-9993"><text>Park Information</text></link></wpt>
<wpt lat="43.6953" lon="-124.039"><name>US-9994 Dean Creek Elk Viewing BLM Recreation Management Area</name><link href="https://pota.app/#/park/US-9994"><text>Park Information</text></link></wpt>
<wpt lat="44.3254" lon="-123.491"><name>US-9995 Alsea Falls BLM Recreation Management Area</name><link href="https://pota.app/#/park/US-9995"><text>Park Information</text></link></wpt>
<wpt lat="45.7325" lon="-122.774"><name>US-9996 Sauvie Island State Fish and Wildlife Area</name><link href="https://pota.app/#/park/US-9996"><text>Park Information</text></link></wpt>
<wpt lat="45.9129" lon="-119.431"><name>US-9997 Irrigon State Fish and Wildlife Area</name><link href="https://pota.app/#/park/US-9997"><text>Park Information</text></link></wpt>
<wpt lat="45.7825" lon="-120.005"><name>US-9998 Willow Creek State Fish and Wildlife Area</name><link href="https://pota.app/#/park/US-9998"><text>Park Information</text></link></wpt>
<wpt lat="45.8426" lon="-119.639"><name>US-9999 Coyote Springs State Fish and Wildlife Area</name><link href="https://pota.app/#/park/US-9999"><text>Park Information</text></link></wpt>
<wpt lat="45.8938" lon="-119.294"><name>US-10000 Power City State Fish and Wildlife Area</name><link href="https://pota.app/#/park/US-10000"><text>Park Information</text></link></wpt>
<wpt lat="45.9401" lon="-123.528"><name>US-10001 Jewell Meadows State Fish and Wildlife Area</name><link href="https://pota.app/#/park/US-10001"><text>Park Information</text></link></wpt>
<wpt lat="45.2463" lon="-117.953"><name>US-10002 Ladd Marsh State Fish and Wildlife Area</name><link href="https://pota.app/#/park/US-10002"><text>Park Information</text></link></wpt>
<wpt lat="44.3529" lon="-119.555"><name>US-10003 Phillip W. Schneider State Fish and Wildlife Area</name><link href="https://pota.app/#/park/US-10003"><text>Park Information</text></link></wpt>
<wpt lat="44.8296" lon="-124.058"><name>US-10007 Oregon Coast State Trail</name><link href="https://pota.app/#/park/US-10007"><text>Park Information</text></link></wpt>
<wpt lat="42.0609" lon="-121.754"><name>US-10008 Klamath Hills BLM Recreation Management Area</name><link href="https://pota.app/#/park/US-10008"><text>Park Information</text></link></wpt>
<wpt lat="43.7776" lon="-123.007"><name>US-10009 Row River National Recreation Trail</name><link href="https://pota.app/#/park/US-10009"><text>Park Information</text></link></wpt>
<wpt lat="44.7562" lon="-122.513"><name>US-10010 Fishermen's Bend BLM Recreation Management Area</name><link href="https://pota.app/#/park/US-10010"><text>Park Information</text></link></wpt>
<wpt lat="42.1809" lon="-121.668"><name>US-10011 OC&amp;E Woods Line State Trail State Trail</name><link href="https://pota.app/#/park/US-10011"><text>Park Information</text></link></wpt>
<wpt lat="44.3903" lon="-121.193"><name>US-10012 Peter Skene Ogden State Park</name><link href="https://pota.app/#/park/US-10012"><text>Park Information</text></link></wpt>
<wpt lat="44.4608" lon="-123.081"><name>US-10013 Thompson's Mills State Historic Site</name><link href="https://pota.app/#/park/US-10013"><text>Park Information</text></link></wpt>
<wpt lat="44.0619" lon="-123.355"><name>US-10014 Fern Ridge State Fish and Wildlife Area</name><link href="https://pota.app/#/park/US-10014"><text>Park Information</text></link></wpt>
<wpt lat="44.9852" lon="-123.43"><name>US-10016 Mill Creek BLM Recreation Management Area</name><link href="https://pota.app/#/park/US-10016"><text>Park Information</text></link></wpt>
<wpt lat="44.5491" lon="-122.43"><name>US-10017 Quartzville Creek BLM Wild and Scenic River</name><link href="https://pota.app/#/park/US-10017"><text>Park Information</text></link></wpt>
<wpt lat="44.1163" lon="-122.442"><name>US-10018 Silver Creek BLM Recreation Management Area</name><link href="https://pota.app/#/park/US-10018"><text>Park Information</text></link></wpt>
<wpt lat="42.0896" lon="-122.073"><name>US-10019 Klamath BLM Wild and Scenic River</name><link href="https://pota.app/#/park/US-10019"><text>Park Information</text></link></wpt>
<wpt lat="42.4632" lon="-123.486"><name>US-10020 Rogue River BLM Wild and Scenic River</name><link href="https://pota.app/#/park/US-10020"><text>Park Information</text></link></wpt>
<wpt lat="42.1236" lon="-122.042"><name>US-10021 Topsy BLM Recreation Management Area</name><link href="https://pota.app/#/park/US-10021"><text>Park Information</text></link></wpt>
<wpt lat="42.2537" lon="-122.228"><name>US-10022 Surveyor BLM Recreation Management Area</name><link href="https://pota.app/#/park/US-10022"><text>Park Information</text></link></wpt>
<wpt lat="42.5811" lon="-121.931"><name>US-10023 Wood River BLM Recreation Management Area</name><link href="https://pota.app/#/park/US-10023"><text>Park Information</text></link></wpt>
<wpt lat="43.0713" lon="-120.945"><name>US-10024 Duncan Reservoir BLM Recreation Management Area</name><link href="https://pota.app/#/park/US-10024"><text>Park Information</text></link></wpt>
<wpt lat="43.3339" lon="-120.396"><name>US-10025 Lost Forest/Dunes/Fossil BLM Special Recreation Management Area</name><link href="https://pota.app/#/park/US-10025"><text>Park Information</text></link></wpt>
<wpt lat="43.5228" lon="-120.866"><name>US-10026 Devils Garden Lava Bed Wilderness Area</name><link href="https://pota.app/#/park/US-10026"><text>Park Information</text></link></wpt>
<wpt lat="44.0626" lon="-120.909"><name>US-10027 Millican Valley OHV BLM Recreation Management Area</name><link href="https://pota.app/#/park/US-10027"><text>Park Information</text></link></wpt>
<wpt lat="43.9578" lon="-121.052"><name>US-10028 Oregon Badlands BLM Wilderness Area</name><link href="https://pota.app/#/park/US-10028"><text>Park Information</text></link></wpt>
<wpt lat="43.9605" lon="-124.101"><name>US-10029 Prichard State Park</name><link href="https://pota.app/#/park/US-10029"><text>Park Information</text></link></wpt>
<wpt lat="44.0643" lon="-121.067"><name>US-10030 Juniper Woodlands BLM Recreation Management Area</name><link href="https://pota.app/#/park/US-10030"><text>Park Information</text></link></wpt>
<wpt lat="44.0659" lon="-121.19"><name>US-10032 Airport Allotment BLM Recreation Management Area</name><link href="https://pota.app/#/park/US-10032"><text>Park Information</text></link></wpt>
<wpt lat="44.2114" lon="-121.303"><name>US-10053 Maston Area BLM Recreation Management Area</name><link href="https://pota.app/#/park/US-10053"><text>Park Information</text></link></wpt>
<wpt lat="44.2884" lon="-121.335"><name>US-10055 Cline Buttes OHV BLM Recreation Management Area</name><link href="https://pota.app/#/park/US-10055"><text>Park Information</text></link></wpt>
<wpt lat="44.869" lon="-120.44"><name>US-10056 Spring Basin Wilderness Area</name><link href="https://pota.app/#/park/US-10056"><text>Park Information</text></link></wpt>
<wpt lat="42.4178" lon="-122.866"><name>US-10240 Kenneth Denman State Wildlife Area</name><link href="https://pota.app/#/park/US-10240"><text>Park Information</text></link></wpt>
<wpt lat="42.4689" lon="-122.945"><name>US-10242 Table Rocks BLM Special Recreation Management Area</name><link href="https://pota.app/#/park/US-10242"><text>Park Information</text></link></wpt>
<wpt lat="45.2716" lon="-121.941"><name>US-10249 Salmon River National Wild and Scenic River</name><link href="https://pota.app/#/park/US-10249"><text>Park Information</text></link></wpt>
<wpt lat="45.3032" lon="-121.674"><name>US-10251 White River National Wild and Scenic River</name><link href="https://pota.app/#/park/US-10251"><text>Park Information</text></link></wpt>
<wpt lat="45.3775" lon="-122.587"><name>US-10355 I-205 Multi-Use State Trail</name><link href="https://pota.app/#/park/US-10355"><text>Park Information</text></link></wpt>
<wpt lat="42.4178" lon="-123.156"><name>US-10356 Mountain of the Rogue Trail System BLM Recreation Management Area</name><link href="https://pota.app/#/park/US-10356"><text>Park Information</text></link></wpt>
<wpt lat="44.2456" lon="-122.863"><name>US-10357 Shotgun Creek OHV BLM Recreation Management Area</name><link href="https://pota.app/#/park/US-10357"><text>Park Information</text></link></wpt>
<wpt lat="44.2288" lon="-122.846"><name>US-10358 Shotgun Creek BLM Recreation Management Area</name><link href="https://pota.app/#/park/US-10358"><text>Park Information</text></link></wpt>
<wpt lat="45.355" lon="-121.987"><name>US-10359 Wildwood Recreation Site BLM Recreation Management Area</name><link href="https://pota.app/#/park/US-10359"><text>Park Information</text></link></wpt>
<wpt lat="45.4071" lon="-122.255"><name>US-10390 Sandy State Fish Hatchery</name><link href="https://pota.app/#/park/US-10390"><text>Park Information</text></link></wpt>
<wpt lat="44.6756" lon="-124.074"><name>US-10412 Yaquina Head Outstanding Natural Area BLM Special Recreation Management Area</name><link href="https://pota.app/#/park/US-10412"><text>Park Information</text></link></wpt>
<wpt lat="45.1682" lon="-121.085"><name>US-10471 Maupin Section Foreman House BLM Historic Area</name><link href="https://pota.app/#/park/US-10471"><text>Park Information</text></link></wpt>
<wpt lat="45.4003" lon="-122.133"><name>US-10472 Marmot BLM Recreation Management Area</name><link href="https://pota.app/#/park/US-10472"><text>Park Information</text></link></wpt>
<wpt lat="45.3807" lon="-122.03"><name>US-10473 Sandy Ridge BLM Recreation Management Area</name><link href="https://pota.app/#/park/US-10473"><text>Park Information</text></link></wpt>
<wpt lat="44.7069" lon="-120.171"><name>US-10474 Sutton Mountain Wilderness Area</name><link href="https://pota.app/#/park/US-10474"><text>Park Information</text></link></wpt>
<wpt lat="44.697" lon="-120.285"><name>US-10475 Pat's Cabin Wilderness Area</name><link href="https://pota.app/#/park/US-10475"><text>Park Information</text></link></wpt>
<wpt lat="44.8152" lon="-119.424"><name>US-10476 Monument BLM Recreation Management Area</name><link href="https://pota.app/#/park/US-10476"><text>Park Information</text></link></wpt>
<wpt lat="44.7975" lon="-117.673"><name>US-10477 Virtue Flat Off-Highway Vehicle BLM Recreation Management Area</name><link href="https://pota.app/#/park/US-10477"><text>Park Information</text></link></wpt>
<wpt lat="44.3761" lon="-117.238"><name>US-10478 Spring BLM Recreation Management Area</name><link href="https://pota.app/#/park/US-10478"><text>Park Information</text></link></wpt>
<wpt lat="44.2629" lon="-117.128"><name>US-10479 Oasis BLM Recreation Management Area</name><link href="https://pota.app/#/park/US-10479"><text>Park Information</text></link></wpt>
<wpt lat="43.8034" lon="-118.155"><name>US-10480 Chukar Park BLM Recreation Management Area</name><link href="https://pota.app/#/park/US-10480"><text>Park Information</text></link></wpt>
<wpt lat="43.6063" lon="-117.255"><name>US-10481 Wild Horse Basin Wilderness Area</name><link href="https://pota.app/#/park/US-10481"><text>Park Information</text></link></wpt>
<wpt lat="43.5533" lon="-118.165"><name>US-10482 Riverside BLM Recreation Management Area</name><link href="https://pota.app/#/park/US-10482"><text>Park Information</text></link></wpt>
<wpt lat="43.1459" lon="-117.46"><name>US-10483 Jordan Craters Area of Environmental Concern National Nature Reserve</name><link href="https://pota.app/#/park/US-10483"><text>Park Information</text></link></wpt>
<wpt lat="42.9086" lon="-117.237"><name>US-10484 Antelope Reservoir BLM Recreation Management Area</name><link href="https://pota.app/#/park/US-10484"><text>Park Information</text></link></wpt>
<wpt lat="43.0516" lon="-117.907"><name>US-10485 Saddle Butte BLM Wilderness Area</name><link href="https://pota.app/#/park/US-10485"><text>Park Information</text></link></wpt>
<wpt lat="42.4428" lon="-119.827"><name>US-10486 Warner Wetland Reserve</name><link href="https://pota.app/#/park/US-10486"><text>Park Information</text></link></wpt>
<wpt lat="42.5468" lon="-120.214"><name>US-10487 Lake Abert and Abert Rim BLM Wilderness Area</name><link href="https://pota.app/#/park/US-10487"><text>Park Information</text></link></wpt>
<wpt lat="42.7232" lon="-119.861"><name>US-10488 Sunstone Collection BLM Recreation Management Area</name><link href="https://pota.app/#/park/US-10488"><text>Park Information</text></link></wpt>
<wpt lat="43.5464" lon="-119.613"><name>US-10489 Chikahominy BLM Recreation Management Area</name><link href="https://pota.app/#/park/US-10489"><text>Park Information</text></link></wpt>
<wpt lat="43.4082" lon="-119.399"><name>US-10490 Moon Reservoir BLM Recreation Management Area</name><link href="https://pota.app/#/park/US-10490"><text>Park Information</text></link></wpt>
<wpt lat="43.5609" lon="-119.136"><name>US-10491 Radar Hill BLM Recreation Management Area</name><link href="https://pota.app/#/park/US-10491"><text>Park Information</text></link></wpt>
<wpt lat="42.2887" lon="-123.231"><name>US-10492 Provolt BLM Recreation Management Area</name><link href="https://pota.app/#/park/US-10492"><text>Park Information</text></link></wpt>
<wpt lat="42.1126" lon="-122.93"><name>US-10493 Kenney Meadows BLM Recreation Management Area</name><link href="https://pota.app/#/park/US-10493"><text>Park Information</text></link></wpt>
<wpt lat="43.3806" lon="-122.949"><name>US-10494 Millpond BLM Recreation Management Area</name><link href="https://pota.app/#/park/US-10494"><text>Park Information</text></link></wpt>
<wpt lat="43.3981" lon="-122.93"><name>US-10495 Rock Creek BLM Recreation Management Area</name><link href="https://pota.app/#/park/US-10495"><text>Park Information</text></link></wpt>
<wpt lat="43.6652" lon="-122.807"><name>US-10496 Sharps Creek BLM Recreation Management Area</name><link href="https://pota.app/#/park/US-10496"><text>Park Information</text></link></wpt>
<wpt lat="43.905" lon="-123.569"><name>US-10497 Clay Creek BLM Recreation Management Area</name><link href="https://pota.app/#/park/US-10497"><text>Park Information</text></link></wpt>
<wpt lat="43.986" lon="-123.665"><name>US-10498 Whittaker Creek BLM Recreation Management Area</name><link href="https://pota.app/#/park/US-10498"><text>Park Information</text></link></wpt>
<wpt lat="44.1594" lon="-123.573"><name>US-10499 Lake Creek Falls BLM Recreation Management Area</name><link href="https://pota.app/#/park/US-10499"><text>Park Information</text></link></wpt>
<wpt lat="42.9524" lon="-120.787"><name>US-10500 Summer Lake State Wildlife Area</name><link href="https://pota.app/#/park/US-10500"><text>Park Information</text></link></wpt>
<wpt lat="44.7" lon="-123.211"><name>US-10501 E.E. Wilson State Wildlife Area</name><link href="https://pota.app/#/park/US-10501"><text>Park Information</text></link></wpt>
<wpt lat="45.0235" lon="-118.075"><name>US-10502 Elkhorn State Wildlife Area</name><link href="https://pota.app/#/park/US-10502"><text>Park Information</text></link></wpt>
<wpt lat="45.2377" lon="-121.353"><name>US-10503 White River State Wildlife Area</name><link href="https://pota.app/#/park/US-10503"><text>Park Information</text></link></wpt>
<wpt lat="42.2382" lon="-119.52"><name>US-10504 Historic Shirk Ranch BLM Historic Area</name><link href="https://pota.app/#/park/US-10504"><text>Park Information</text></link></wpt>
<wpt lat="42.2592" lon="-119.542"><name>US-10505 Guano Creek BLM Wilderness Area</name><link href="https://pota.app/#/park/US-10505"><text>Park Information</text></link></wpt>
<wpt lat="45.4283" lon="-122.376"><name>US-10506 Estacada- Boring State Trail</name><link href="https://pota.app/#/park/US-10506"><text>Park Information</text></link></wpt>
<wpt lat="43.4124" lon="-117.172"><name>US-10537 Three Fingers BLM Herd Management Area</name><link href="https://pota.app/#/park/US-10537"><text>Park Information</text></link></wpt>
<wpt lat="42.6438" lon="-117.547"><name>US-10538 Jackies Butte BLM Herd Management Area</name><link href="https://pota.app/#/park/US-10538"><text>Park Information</text></link></wpt>
<wpt lat="44.1698" lon="-124.116"><name>US-10605 Muriel O. Ponsler Memorial State Park</name><link href="https://pota.app/#/park/US-10605"><text>Park Information</text></link></wpt>
<wpt lat="44.2683" lon="-121.255"><name>US-10606 Cline Falls State Park</name><link href="https://pota.app/#/park/US-10606"><text>Park Information</text></link></wpt>
<wpt lat="46.1712" lon="-123.437"><name>US-10607 Bradley State Park</name><link href="https://pota.app/#/park/US-10607"><text>Park Information</text></link></wpt>
<wpt lat="44.8294" lon="-124.065"><name>US-10608 Boiler Bay State Park</name><link href="https://pota.app/#/park/US-10608"><text>Park Information</text></link></wpt>
<wpt lat="43.7126" lon="-124.1"><name>US-10609 Bolon Island Tideways State Park</name><link href="https://pota.app/#/park/US-10609"><text>Park Information</text></link></wpt>
<wpt lat="44.4151" lon="-122.676"><name>US-10610 South Santiam State Fish Hatchery</name><link href="https://pota.app/#/park/US-10610"><text>Park Information</text></link></wpt>
<wpt lat="45.7328" lon="-117.865"><name>US-10611 Lookingglass Hatchery State Fish Hatchery</name><link href="https://pota.app/#/park/US-10611"><text>Park Information</text></link></wpt>
<wpt lat="44.5223" lon="-121.632"><name>US-10612 Wizard Falls State Fish Hatchery</name><link href="https://pota.app/#/park/US-10612"><text>Park Information</text></link></wpt>
<wpt lat="42.6626" lon="-122.685"><name>US-10613 Cole M. Rivers State Fish Hatchery</name><link href="https://pota.app/#/park/US-10613"><text>Park Information</text></link></wpt>
<wpt lat="42.361" lon="-123.419"><name>US-10733 Bolt Mountain BLM Historic Trail</name><link href="https://pota.app/#/park/US-10733"><text>Park Information</text></link></wpt>
<wpt lat="42.2452" lon="-122.978"><name>US-10734 East Applegate Ridge Trail BLM Historic Trail</name><link href="https://pota.app/#/park/US-10734"><text>Park Information</text></link></wpt>
<wpt lat="42.0285" lon="-119.447"><name>US-10735 Beaty Butte HMA BLM Herd Management Area</name><link href="https://pota.app/#/park/US-10735"><text>Park Information</text></link></wpt>
<wpt lat="43.4394" lon="-117.786"><name>US-10736 Cold Springs HMA BLM Herd Management Area</name><link href="https://pota.app/#/park/US-10736"><text>Park Information</text></link></wpt>
<wpt lat="42.5581" lon="-118.09"><name>US-10737 Coyote Lake/Alvord Tule Springs HMA BLM Herd Management Area</name><link href="https://pota.app/#/park/US-10737"><text>Park Information</text></link></wpt>
<wpt lat="43.8297" lon="-117.721"><name>US-10738 Hog Creek HMA BLM Herd Management Area</name><link href="https://pota.app/#/park/US-10738"><text>Park Information</text></link></wpt>
<wpt lat="42.9953" lon="-118.606"><name>US-10739 Kiger HMA BLM Herd Management Area</name><link href="https://pota.app/#/park/US-10739"><text>Park Information</text></link></wpt>
<wpt lat="43.9948" lon="-120.089"><name>US-10740 Liggett Table BLM Herd Management Area</name><link href="https://pota.app/#/park/US-10740"><text>Park Information</text></link></wpt>
<wpt lat="44.1923" lon="-119.526"><name>US-10741 Murderer's Creek BLM Herd Management Area</name><link href="https://pota.app/#/park/US-10741"><text>Park Information</text></link></wpt>
<wpt lat="42.9611" lon="-120.386"><name>US-10742 Paisley Desert BLM Herd Management Area</name><link href="https://pota.app/#/park/US-10742"><text>Park Information</text></link></wpt>
<wpt lat="43.4219" lon="-119.208"><name>US-10743 Palomino Butte BLM Herd Management Area</name><link href="https://pota.app/#/park/US-10743"><text>Park Information</text></link></wpt>
<wpt lat="42.0562" lon="-122.203"><name>US-10744 Pokegama BLM Herd Management Area</name><link href="https://pota.app/#/park/US-10744"><text>Park Information</text></link></wpt>
<wpt lat="43.0492" lon="-118.325"><name>US-10745 Riddle Mountain BLM Herd Management Area</name><link href="https://pota.app/#/park/US-10745"><text>Park Information</text></link></wpt>
<wpt lat="43.0296" lon="-117.746"><name>US-10746 Sand Springs BLM Herd Management Area</name><link href="https://pota.app/#/park/US-10746"><text>Park Information</text></link></wpt>
<wpt lat="42.8233" lon="-118.039"><name>US-10747 Sheepshead/Heath Creek BLM Herd Management Area</name><link href="https://pota.app/#/park/US-10747"><text>Park Information</text></link></wpt>
<wpt lat="42.5336" lon="-118.714"><name>US-10748 South Steens BLM Herd Management Area</name><link href="https://pota.app/#/park/US-10748"><text>Park Information</text></link></wpt>
<wpt lat="43.5791" lon="-118.433"><name>US-10749 Stinkingwater BLM Herd Management Area</name><link href="https://pota.app/#/park/US-10749"><text>Park Information</text></link></wpt>
<wpt lat="43.1069" lon="-119.201"><name>US-10750 Warm Springs BLM Herd Management Area</name><link href="https://pota.app/#/park/US-10750"><text>Park Information</text></link></wpt>
<wpt lat="44.3909" lon="-122.511"><name>US-10752 Cascadia short bridge day use National Recreation Area</name><link href="https://pota.app/#/park/US-10752"><text>Park Information</text></link></wpt>
<wpt lat="42.2311" lon="-123.004"><name>US-10753 Woodrat Mountain Paragliding BLM Recreation Management Area</name><link href="https://pota.app/#/park/US-10753"><text>Park Information</text></link></wpt>
<wpt lat="42.2332" lon="-123.661"><name>US-10754 Eight Dollar Mountain Botanical Wayside BLM Recreation Management Area</name><link href="https://pota.app/#/park/US-10754"><text>Park Information</text></link></wpt>
<wpt lat="42.394" lon="-123.334"><name>US-10755 Cathedral Hills Trail System BLM Recreation Management Area</name><link href="https://pota.app/#/park/US-10755"><text>Park Information</text></link></wpt>
<wpt lat="42.1608" lon="-122.915"><name>US-10757 Sterling Mine Ditch Trail BLM Historic Trail</name><link href="https://pota.app/#/park/US-10757"><text>Park Information</text></link></wpt>
<wpt lat="42.722" lon="-123.878"><name>US-10760 Wild Rogue BLM Wilderness Area</name><link href="https://pota.app/#/park/US-10760"><text>Park Information</text></link></wpt>
<wpt lat="42.7188" lon="-123.882"><name>US-10761 Rogue River Ranch BLM Historic Preservation Site</name><link href="https://pota.app/#/park/US-10761"><text>Park Information</text></link></wpt>
<wpt lat="42.3288" lon="-124.426"><name>US-11243 Cape Sebastian Corridor State Recreation Area</name><link href="https://pota.app/#/park/US-11243"><text>Park Information</text></link></wpt>
<wpt lat="45.2837" lon="-118.971"><name>US-11263 Battle Mountain State Forest</name><link href="https://pota.app/#/park/US-11263"><text>Park Information</text></link></wpt>
<wpt lat="45.1241" lon="-118.973"><name>US-11264 Ukiah Dale State Forest</name><link href="https://pota.app/#/park/US-11264"><text>Park Information</text></link></wpt>
<wpt lat="43.6774" lon="-123.933"><name>US-11969 Umpqua State Scenic Corridor State Park</name><link href="https://pota.app/#/park/US-11969"><text>Park Information</text></link></wpt>
<wpt lat="44.6252" lon="-122.719"><name>US-12082 Roaring River State Fish Hatchery</name><link href="https://pota.app/#/park/US-12082"><text>Park Information</text></link></wpt>
<wpt lat="45.72" lon="-119.309"><name>US-12179 Echo Meadows BLM Interpretive Site</name><link href="https://pota.app/#/park/US-12179"><text>Park Information</text></link></wpt>
<wpt lat="42.2753" lon="-124.405"><name>US-12335 Pistol River State Park</name><link href="https://pota.app/#/park/US-12335"><text>Park Information</text></link></wpt>
<wpt lat="45.9806" lon="-117.392"><name>US-12347 Grande Ronde National Wild and Scenic River</name><link href="https://pota.app/#/park/US-12347"><text>Park Information</text></link></wpt>
<wpt lat="45.7243" lon="-117.784"><name>US-12348 Wallowa BLM Wild and Scenic River</name><link href="https://pota.app/#/park/US-12348"><text>Park Information</text></link></wpt>
<wpt lat="42.8035" lon="-118.867"><name>US-12370 Page Springs BLM Recreation Management Area</name><link href="https://pota.app/#/park/US-12370"><text>Park Information</text></link></wpt>
<wpt lat="44.7847" lon="-124.073"><name>US-12453 Rocky Point Viewpoint State Park</name><link href="https://pota.app/#/park/US-12453"><text>Park Information</text></link></wpt>
<wpt lat="42.991" lon="-124.461"><name>US-12462 New River BLM Special Recreation Management Area</name><link href="https://pota.app/#/park/US-12462"><text>Park Information</text></link></wpt>
<wpt lat="43.1053" lon="-124.434"><name>US-12465 Face Rock State Park</name><link href="https://pota.app/#/park/US-12465"><text>Park Information</text></link></wpt>
<wpt lat="43.2973" lon="-122.894"><name>US-12467 Susan Creek BLM Recreation Management Area</name><link href="https://pota.app/#/park/US-12467"><text>Park Information</text></link></wpt>
<wpt lat="43.333" lon="-123.005"><name>US-12468 Swiftwater Day Use BLM Recreation Management Area</name><link href="https://pota.app/#/park/US-12468"><text>Park Information</text></link></wpt>
<wpt lat="43.317" lon="-122.974"><name>US-12469 Baker Wayside BLM Recreation Management Area</name><link href="https://pota.app/#/park/US-12469"><text>Park Information</text></link></wpt>
<wpt lat="43.3272" lon="-123.005"><name>US-12470 Emerald Waters BLM Recreation Management Area</name><link href="https://pota.app/#/park/US-12470"><text>Park Information</text></link></wpt>
<wpt lat="43.3169" lon="-123.061"><name>US-12471 Lone Rock BLM Recreation Management Area</name><link href="https://pota.app/#/park/US-12471"><text>Park Information</text></link></wpt>
<wpt lat="43.3254" lon="-123.203"><name>US-12472 North Bank Habitat BLM Special Recreation Management Area</name><link href="https://pota.app/#/park/US-12472"><text>Park Information</text></link></wpt>
<wpt lat="43.3797" lon="-122.761"><name>US-12473 Scaredman BLM Recreation Management Area</name><link href="https://pota.app/#/park/US-12473"><text>Park Information</text></link></wpt>
<wpt lat="43.2468" lon="-122.89"><name>US-12474 E-Mile Day Use BLM Recreation Management Area</name><link href="https://pota.app/#/park/US-12474"><text>Park Information</text></link></wpt>
<wpt lat="43.2338" lon="-122.951"><name>US-12475 Wolf Creek BLM Special Recreation Management Area</name><link href="https://pota.app/#/park/US-12475"><text>Park Information</text></link></wpt>
<wpt lat="43.1996" lon="-123.023"><name>US-12476 Cavitt Creek Falls BLM Recreation Management Area</name><link href="https://pota.app/#/park/US-12476"><text>Park Information</text></link></wpt>
<wpt lat="43.2955" lon="-124.335"><name>US-12510 South Slough Reserve State Park Preserve</name><link href="https://pota.app/#/park/US-12510"><text>Park Information</text></link></wpt>
<wpt lat="43.1599" lon="-123.865"><name>US-12594 Maria C Jackson State Park Preserve</name><link href="https://pota.app/#/park/US-12594"><text>Park Information</text></link></wpt>
<wpt lat="45.704" lon="-121.476"><name>US-12741 Koberg Beach State Recreation Area</name><link href="https://pota.app/#/park/US-12741"><text>Park Information</text></link></wpt>
<wpt lat="45.6978" lon="-121.64"><name>US-12742 Wygant State Natural Area</name><link href="https://pota.app/#/park/US-12742"><text>Park Information</text></link></wpt>
<wpt lat="42.0954" lon="-123.683"><name>US-12743 Rough and Ready BLM Recreation Management Area</name><link href="https://pota.app/#/park/US-12743"><text>Park Information</text></link></wpt>
<wpt lat="45.7031" lon="-121.618"><name>US-12744 Seneca Fouts-Vinzenz Lausmann Mem State Natural Area</name><link href="https://pota.app/#/park/US-12744"><text>Park Information</text></link></wpt>
<wpt lat="45.5536" lon="-122.183"><name>US-12747 Bridal Veil Falls State Park</name><link href="https://pota.app/#/park/US-12747"><text>Park Information</text></link></wpt>
<wpt lat="43.448" lon="-124.205"><name>US-12749 Conde McCullough Memorial Wayside State Park</name><link href="https://pota.app/#/park/US-12749"><text>Park Information</text></link></wpt>
<wpt lat="43.2465" lon="-123.896"><name>US-12834 Park Creek Campground BLM Recreation Management Area</name><link href="https://pota.app/#/park/US-12834"><text>Park Information</text></link></wpt>
<wpt lat="43.45" lon="-123.54"><name>US-12835 Osprey Boat BLM Recreation Management Area</name><link href="https://pota.app/#/park/US-12835"><text>Park Information</text></link></wpt>
<wpt lat="43.4978" lon="-123.493"><name>US-12836 Eagleview BLM Recreation Management Area</name><link href="https://pota.app/#/park/US-12836"><text>Park Information</text></link></wpt>
<wpt lat="43.5926" lon="-123.835"><name>US-12837 East Shore BLM Recreation Management Area</name><link href="https://pota.app/#/park/US-12837"><text>Park Information</text></link></wpt>
<wpt lat="43.5972" lon="-123.84"><name>US-12838 Loon Lake BLM Recreation Management Area</name><link href="https://pota.app/#/park/US-12838"><text>Park Information</text></link></wpt>
<wpt lat="43.7926" lon="-123.777"><name>US-12839 Vincent Creek BLM Recreation Management Area</name><link href="https://pota.app/#/park/US-12839"><text>Park Information</text></link></wpt>
<wpt lat="43.7906" lon="-123.814"><name>US-12840 Smith River BLM Recreation Management Area</name><link href="https://pota.app/#/park/US-12840"><text>Park Information</text></link></wpt>
<wpt lat="43.7845" lon="-123.831"><name>US-12841 Fawn Creek BLM Recreation Management Area</name><link href="https://pota.app/#/park/US-12841"><text>Park Information</text></link></wpt>
<wpt lat="43.4163" lon="-124.28"><name>US-12843 The North Spit BLM Recreation Management Area</name><link href="https://pota.app/#/park/US-12843"><text>Park Information</text></link></wpt>
<wpt lat="43.3469" lon="-124.346"><name>US-12844 Bastendorff Beach BLM Recreation Management Area</name><link href="https://pota.app/#/park/US-12844"><text>Park Information</text></link></wpt>
<wpt lat="44.2412" lon="-123.495"><name>US-12845 Hult Dam &amp; Reservoir BLM Recreation Management Area</name><link href="https://pota.app/#/park/US-12845"><text>Park Information</text></link></wpt>
<wpt lat="43.0773" lon="-118.75"><name>US-12881 Diamond Craters Outstanding BLM Recreation Management Area</name><link href="https://pota.app/#/park/US-12881"><text>Park Information</text></link></wpt>
<wpt lat="45.0831" lon="-118.939"><name>US-12944 Bridge Creek State Fish and Wildlife Area</name><link href="https://pota.app/#/park/US-12944"><text>Park Information</text></link></wpt>
<wpt lat="43.2161" lon="-124.259"><name>US-12945 Coquille Valley State Fish and Wildlife Area</name><link href="https://pota.app/#/park/US-12945"><text>Park Information</text></link></wpt>
<wpt lat="42.1554" lon="-121.81"><name>US-12949 Klamath State Fish and Wildlife Area</name><link href="https://pota.app/#/park/US-12949"><text>Park Information</text></link></wpt>
<wpt lat="45.5491" lon="-120.902"><name>US-12950 Lower Deschutes State Fish and Wildlife Area</name><link href="https://pota.app/#/park/US-12950"><text>Park Information</text></link></wpt>
<wpt lat="44.1485" lon="-120.68"><name>US-12951 Prineville Reservoir State Fish and Wildlife Area</name><link href="https://pota.app/#/park/US-12951"><text>Park Information</text></link></wpt>
<wpt lat="43.5525" lon="-118.144"><name>US-12952 Riverside State Fish and Wildlife Area</name><link href="https://pota.app/#/park/US-12952"><text>Park Information</text></link></wpt>
<wpt lat="43.809" lon="-117.037"><name>US-12953 Rogers State Fish and Wildlife Area</name><link href="https://pota.app/#/park/US-12953"><text>Park Information</text></link></wpt>
<wpt lat="45.9331" lon="-117.468"><name>US-12954 Wenaha State Fish and Wildlife Area</name><link href="https://pota.app/#/park/US-12954"><text>Park Information</text></link></wpt>
<wpt lat="44.589" lon="-122.374"><name>US-12958 Yellowbottom BLM Recreation Management Area</name><link href="https://pota.app/#/park/US-12958"><text>Park Information</text></link></wpt>
<wpt lat="44.482" lon="-122.515"><name>US-12959 Quartzville BC Byway Kiosk BLM Special Recreation Management Area</name><link href="https://pota.app/#/park/US-12959"><text>Park Information</text></link></wpt>
<wpt lat="44.5493" lon="-122.429"><name>US-12960 Dogwood BLM Recreation Management Area</name><link href="https://pota.app/#/park/US-12960"><text>Park Information</text></link></wpt>
<wpt lat="44.5862" lon="-122.353"><name>US-12961 Old Miners Meadow BLM Recreation Management Area</name><link href="https://pota.app/#/park/US-12961"><text>Park Information</text></link></wpt>
<wpt lat="43.7983" lon="-121.575"><name>US-12976 Fall River State Fish Hatchery</name><link href="https://pota.app/#/park/US-12976"><text>Park Information</text></link></wpt>
<wpt lat="45.0172" lon="-123.937"><name>US-12977 Salmon River State Fish Hatchery</name><link href="https://pota.app/#/park/US-12977"><text>Park Information</text></link></wpt>
<wpt lat="43.745" lon="-122.444"><name>US-12978 Willamette State Fish Hatchery</name><link href="https://pota.app/#/park/US-12978"><text>Park Information</text></link></wpt>
<wpt lat="45.6339" lon="-121.959"><name>US-12979 Bonneville State Fish Hatchery</name><link href="https://pota.app/#/park/US-12979"><text>Park Information</text></link></wpt>
<wpt lat="45.4321" lon="-123.725"><name>US-12980 Trask River State Fish Hatchery</name><link href="https://pota.app/#/park/US-12980"><text>Park Information</text></link></wpt>
<wpt lat="45.2189" lon="-121.079"><name>US-12981 Oak Springs State Fish Hatchery</name><link href="https://pota.app/#/park/US-12981"><text>Park Information</text></link></wpt>
<wpt lat="45.91" lon="-119.547"><name>US-12982 Irrigon State Fish Hatchery</name><link href="https://pota.app/#/park/US-12982"><text>Park Information</text></link></wpt>
<wpt lat="46.1696" lon="-123.487"><name>US-12983 Gnat Creek State Fish Hatchery</name><link href="https://pota.app/#/park/US-12983"><text>Park Information</text></link></wpt>
<wpt lat="45.2137" lon="-123.848"><name>US-12984 Cedar Creek State Fish Hatchery</name><link href="https://pota.app/#/park/US-12984"><text>Park Information</text></link></wpt>
<wpt lat="46.1467" lon="-123.581"><name>US-12985 Big Creek State Fish Hatchery</name><link href="https://pota.app/#/park/US-12985"><text>Park Information</text></link></wpt>
<wpt lat="44.4206" lon="-123.563"><name>US-12986 Alsea River State Fish Hatchery</name><link href="https://pota.app/#/park/US-12986"><text>Park Information</text></link></wpt>
<wpt lat="42.65" lon="-121.947"><name>US-12987 Klamath State Fish Hatchery</name><link href="https://pota.app/#/park/US-12987"><text>Park Information</text></link></wpt>
<wpt lat="45.8123" lon="-123.772"><name>US-12988 North Nehalem State Fish Hatchery</name><link href="https://pota.app/#/park/US-12988"><text>Park Information</text></link></wpt>
<wpt lat="45.4179" lon="-117.3"><name>US-12989 Wallowa State Fish Hatchery</name><link href="https://pota.app/#/park/US-12989"><text>Park Information</text></link></wpt>
<wpt lat="43.3364" lon="-123.001"><name>US-12990 Rock Creek State Fish Hatchery</name><link href="https://pota.app/#/park/US-12990"><text>Park Information</text></link></wpt>
<wpt lat="44.6118" lon="-121.947"><name>US-12991 Marion Forks State Fish Hatchery</name><link href="https://pota.app/#/park/US-12991"><text>Park Information</text></link></wpt>
<wpt lat="43.115" lon="-124.383"><name>US-12992 Bandon State Fish Hatchery</name><link href="https://pota.app/#/park/US-12992"><text>Park Information</text></link></wpt>
<wpt lat="42.7381" lon="-124.402"><name>US-12993 Elk River State Fish Hatchery</name><link href="https://pota.app/#/park/US-12993"><text>Park Information</text></link></wpt>
<wpt lat="46.0899" lon="-123.718"><name>US-12994 Klaskanine State Fish Hatchery</name><link href="https://pota.app/#/park/US-12994"><text>Park Information</text></link></wpt>
<wpt lat="44.1377" lon="-122.611"><name>US-12995 Leaburg State Fish Hatchery</name><link href="https://pota.app/#/park/US-12995"><text>Park Information</text></link></wpt>
<wpt lat="43.3006" lon="-117.285"><name>US-13065 Leslie Gulch BLM Recreation Management Area</name><link href="https://pota.app/#/park/US-13065"><text>Park Information</text></link></wpt>
<wpt lat="43.2854" lon="-117.235"><name>US-13066 Upper Leslie Gulch BLM Wilderness Area</name><link href="https://pota.app/#/park/US-13066"><text>Park Information</text></link></wpt>
<wpt lat="43.3214" lon="-117.319"><name>US-13067 Slocum Creek Campground BLM Recreation Management Area</name><link href="https://pota.app/#/park/US-13067"><text>Park Information</text></link></wpt>
<wpt lat="43.4181" lon="-117.277"><name>US-13068 Honeycombs BLM Wilderness Area</name><link href="https://pota.app/#/park/US-13068"><text>Park Information</text></link></wpt>
<wpt lat="43.4279" lon="-117.396"><name>US-13069 Dry Creek Buttes BLM Wilderness Area</name><link href="https://pota.app/#/park/US-13069"><text>Park Information</text></link></wpt>
<wpt lat="43.4248" lon="-117.346"><name>US-13070 Owyhee State Airstrip State Recreation Site</name><link href="https://pota.app/#/park/US-13070"><text>Park Information</text></link></wpt>
<wpt lat="43.2861" lon="-117.297"><name>US-13071 Slocum Creek BLM Wilderness Area</name><link href="https://pota.app/#/park/US-13071"><text>Park Information</text></link></wpt>
<wpt lat="44.4083" lon="-121.774"><name>US-13072 Elliott Corbett State Park</name><link href="https://pota.app/#/park/US-13072"><text>Park Information</text></link></wpt>
<wpt lat="42.805" lon="-117.731"><name>US-13073 Crooked Creek State Natural Area</name><link href="https://pota.app/#/park/US-13073"><text>Park Information</text></link></wpt>
<wpt lat="42.8969" lon="-123.241"><name>US-13074 Canyon Creek State Forest</name><link href="https://pota.app/#/park/US-13074"><text>Park Information</text></link></wpt>
<wpt lat="42.8972" lon="-123.233"><name>US-13075 Bear Gulch BLM Wilderness Area</name><link href="https://pota.app/#/park/US-13075"><text>Park Information</text></link></wpt>
<wpt lat="45.2898" lon="-118.332"><name>US-13076 Red Bridge State Park</name><link href="https://pota.app/#/park/US-13076"><text>Park Information</text></link></wpt>
<wpt lat="45.6413" lon="-121.928"><name>US-13078 Cascade State Fish Hatchery</name><link href="https://pota.app/#/park/US-13078"><text>Park Information</text></link></wpt>
<wpt lat="42.1969" lon="-120.591"><name>US-13080 Booth State Recreation Site</name><link href="https://pota.app/#/park/US-13080"><text>Park Information</text></link></wpt>
<wpt lat="44.1348" lon="-124.123"><name>US-13085 Heceta Head Lighthouse State Park</name><link href="https://pota.app/#/park/US-13085"><text>Park Information</text></link></wpt>
<wpt lat="45.2771" lon="-122.204"><name>US-13086 Eagle Creek National Fish Hatchery</name><link href="https://pota.app/#/park/US-13086"><text>Park Information</text></link></wpt>
<wpt lat="43.485" lon="-123.484"><name>US-13091 Tyee BLM Recreation Management Area</name><link href="https://pota.app/#/park/US-13091"><text>Park Information</text></link></wpt>
<wpt lat="44.2443" lon="-124.112"><name>US-13096 Bob Creek Wayside State Recreation Site</name><link href="https://pota.app/#/park/US-13096"><text>Park Information</text></link></wpt>
<wpt lat="44.2539" lon="-124.112"><name>US-13097 Strawberry Hill Wayside State Recreation Site</name><link href="https://pota.app/#/park/US-13097"><text>Park Information</text></link></wpt>
<wpt lat="44.2649" lon="-124.108"><name>US-13098 Neptune South Wayside State Recreation Site</name><link href="https://pota.app/#/park/US-13098"><text>Park Information</text></link></wpt>
<wpt lat="44.2698" lon="-124.108"><name>US-13099 Neptune North Wayside State Recreation Site</name><link href="https://pota.app/#/park/US-13099"><text>Park Information</text></link></wpt>
</gpx>